{"330":{"name":"Tirana","latitude":41.33000183105469,"longitude":19.81999969482422,"country_name":"Albania"},"2673":{"name":"Adrar","latitude":27.971633911132812,"longitude":-0.1869640052318573,"country_name":"Algeria"},"2674":{"name":"Algiers","latitude":36.75376892089844,"longitude":3.058756113052368,"country_name":"Algeria"},"2675":{"name":"Annaba","latitude":36.926456451416016,"longitude":7.752534866333008,"country_name":"Algeria"},"2676":{"name":"Batna","latitude":35.5610237121582,"longitude":6.173912048339844,"country_name":"Algeria"},"2679":{"name":"Biskra","latitude":34.8370361328125,"longitude":5.7510480880737305,"country_name":"Algeria"},"2680":{"name":"Bordj Badji Mokhtar","latitude":21.377500534057617,"longitude":0.9236109852790833,"country_name":"Algeria"},"2677":{"name":"Béchar","latitude":31.618249893188477,"longitude":-2.214323043823242,"country_name":"Algeria"},"2678":{"name":"Béjaïa","latitude":36.75088882446289,"longitude":5.056733131408691,"country_name":"Algeria"},"2681":{"name":"Chlef","latitude":36.147422790527344,"longitude":1.3083690404891968,"country_name":"Algeria"},"2682":{"name":"Constantine","latitude":36.36015319824219,"longitude":6.642433166503906,"country_name":"Algeria"},"2683":{"name":"Djanet","latitude":24.554569244384766,"longitude":9.481160163879395,"country_name":"Algeria"},"2684":{"name":"El Bayadh","latitude":33.658138275146484,"longitude":1.0203219652175903,"country_name":"Algeria"},"2685":{"name":"El Goléa","latitude":30.59958839416504,"longitude":2.887644052505493,"country_name":"Algeria"},"2686":{"name":"El Oued","latitude":33.371341705322266,"longitude":6.847968101501465,"country_name":"Algeria"},"2687":{"name":"Ghardaïa","latitude":32.49022674560547,"longitude":3.6738409996032715,"country_name":"Algeria"},"2688":{"name":"Hassi Messaoud","latitude":31.67305564880371,"longitude":6.1405558586120605,"country_name":"Algeria"},"2689":{"name":"Illizi","latitude":26.509435653686523,"longitude":8.473272323608398,"country_name":"Algeria"},"2690":{"name":"In Amenas","latitude":28.04615020751953,"longitude":9.578474998474121,"country_name":"Algeria"},"2691":{"name":"In Guezzam","latitude":19.566667556762695,"longitude":5.75,"country_name":"Algeria"},"2692":{"name":"In Salah","latitude":27.192777633666992,"longitude":2.4851460456848145,"country_name":"Algeria"},"2693":{"name":"Jijel","latitude":36.81673812866211,"longitude":5.749093055725098,"country_name":"Algeria"},"2694":{"name":"Laghouat","latitude":33.79725646972656,"longitude":2.8694069385528564,"country_name":"Algeria"},"2695":{"name":"Mecheria","latitude":33.535831451416016,"longitude":-0.24222199618816376,"country_name":"Algeria"},"2696":{"name":"Oran","latitude":35.697654724121094,"longitude":-0.6337379813194275,"country_name":"Algeria"},"2697":{"name":"Ouargla","latitude":32.167781829833984,"longitude":4.976654052734375,"country_name":"Algeria"},"2698":{"name":"Sétif","latitude":36.196903228759766,"longitude":5.4150872230529785,"country_name":"Algeria"},"2699":{"name":"Tamanrasset","latitude":22.811389923095703,"longitude":5.45111083984375,"country_name":"Algeria"},"2701":{"name":"Tiaret","latitude":35.36735534667969,"longitude":1.3220319747924805,"country_name":"Algeria"},"2702":{"name":"Timimoun","latitude":29.260921478271484,"longitude":0.23853899538516998,"country_name":"Algeria"},"2703":{"name":"Tindouf","latitude":27.676101684570312,"longitude":-8.127653121948242,"country_name":"Algeria"},"2704":{"name":"Tlemcen","latitude":34.888404846191406,"longitude":-1.3180040121078491,"country_name":"Algeria"},"2705":{"name":"Touggourt","latitude":33.099609375,"longitude":6.07850980758667,"country_name":"Algeria"},"2700":{"name":"Tébessa","latitude":35.414249420166016,"longitude":8.101092338562012,"country_name":"Algeria"},"1063":{"name":"Andorra la Vella","latitude":42.5,"longitude":1.5166670083999634,"country_name":"Andorra"},"1064":{"name":"Arinsal","latitude":42.57207107543945,"longitude":1.4839099645614624,"country_name":"Andorra"},"1065":{"name":"Encamp","latitude":42.53633117675781,"longitude":1.583109974861145,"country_name":"Andorra"},"1067":{"name":"Pas de la Casa","latitude":42.54233932495117,"longitude":1.7338299751281738,"country_name":"Andorra"},"1068":{"name":"Sant Julià de Lòria","latitude":42.46532440185547,"longitude":1.4920099973678589,"country_name":"Andorra"},"1069":{"name":"Soldeu","latitude":42.576881408691406,"longitude":1.6677600145339966,"country_name":"Andorra"},"5690":{"name":"Cabinda","latitude":-5.570573806762695,"longitude":12.197583198547363,"country_name":"Angola"},"5691":{"name":"Catumbela","latitude":-12.421128273010254,"longitude":13.54947566986084,"country_name":"Angola"},"5692":{"name":"Dundo","latitude":-7.374177932739258,"longitude":20.819528579711914,"country_name":"Angola"},"5693":{"name":"Huambo","latitude":-12.77397632598877,"longitude":15.746853828430176,"country_name":"Angola"},"5694":{"name":"Luanda","latitude":-8.839987754821777,"longitude":13.289437294006348,"country_name":"Angola"},"5695":{"name":"Lubango","latitude":-14.918614387512207,"longitude":13.532122611999512,"country_name":"Angola"},"5696":{"name":"Luena","latitude":-11.7714262008667,"longitude":19.8901424407959,"country_name":"Angola"},"5697":{"name":"Menongue","latitude":-14.659407615661621,"longitude":17.698488235473633,"country_name":"Angola"},"5698":{"name":"Namibe","latitude":-15.197832107543945,"longitude":12.157553672790527,"country_name":"Angola"},"5699":{"name":"Ondjiva","latitude":-17.06270980834961,"longitude":15.702845573425293,"country_name":"Angola"},"5700":{"name":"Saurimo","latitude":-9.661216735839844,"longitude":20.390459060668945,"country_name":"Angola"},"5701":{"name":"Soyo","latitude":-6.141026020050049,"longitude":12.3521146774292,"country_name":"Angola"},"2408":{"name":"Antigua","latitude":17.074655532836914,"longitude":-61.81752014160156,"country_name":"Antigua & Barbuda"},"5102":{"name":"Bahía Blanca","latitude":-38.718318939208984,"longitude":-62.26634979248047,"country_name":"Argentina"},"5103":{"name":"Bariloche","latitude":-41.13347244262695,"longitude":-71.3102798461914,"country_name":"Argentina"},"65":{"name":"Buenos Aires","latitude":-34.599998474121094,"longitude":-58.380001068115234,"country_name":"Argentina"},"5104":{"name":"Comodoro Rivadavia","latitude":-45.86561584472656,"longitude":-67.48224639892578,"country_name":"Argentina"},"5106":{"name":"Corrientes","latitude":-27.469213485717773,"longitude":-58.83063507080078,"country_name":"Argentina"},"5105":{"name":"Córdoba","latitude":-31.420082092285156,"longitude":-64.18877410888672,"country_name":"Argentina"},"5107":{"name":"El Calafate","latitude":-50.33797073364258,"longitude":-72.26480102539062,"country_name":"Argentina"},"5108":{"name":"Esquel","latitude":-42.90952682495117,"longitude":-71.31431579589844,"country_name":"Argentina"},"5109":{"name":"Formosa","latitude":-26.18577766418457,"longitude":-58.175567626953125,"country_name":"Argentina"},"5110":{"name":"La Rioja","latitude":-29.413454055786133,"longitude":-66.85646057128906,"country_name":"Argentina"},"5111":{"name":"Mar del Plata","latitude":-38.00547790527344,"longitude":-57.54261016845703,"country_name":"Argentina"},"5112":{"name":"Mendoza","latitude":-32.88945770263672,"longitude":-68.84584045410156,"country_name":"Argentina"},"5113":{"name":"Merlo","latitude":-32.347511291503906,"longitude":-65.01620483398438,"country_name":"Argentina"},"5114":{"name":"Neuquén","latitude":-38.95167922973633,"longitude":-68.05918884277344,"country_name":"Argentina"},"5115":{"name":"Paraná","latitude":-31.74131965637207,"longitude":-60.51154708862305,"country_name":"Argentina"},"5116":{"name":"Posadas","latitude":-27.362136840820312,"longitude":-55.900875091552734,"country_name":"Argentina"},"5117":{"name":"Puerto Iguazú","latitude":-25.597164154052734,"longitude":-54.57859802246094,"country_name":"Argentina"},"5118":{"name":"Puerto Madryn","latitude":-42.769447326660156,"longitude":-65.0317153930664,"country_name":"Argentina"},"5119":{"name":"Reconquista","latitude":-29.144819259643555,"longitude":-59.643524169921875,"country_name":"Argentina"},"5120":{"name":"Resistencia","latitude":-27.451862335205078,"longitude":-58.98555374145508,"country_name":"Argentina"},"5124":{"name":"Rosario","latitude":-32.944244384765625,"longitude":-60.65053939819336,"country_name":"Argentina"},"5121":{"name":"Río Cuarto","latitude":-33.1231575012207,"longitude":-64.3493423461914,"country_name":"Argentina"},"5122":{"name":"Río Gallegos","latitude":-51.623050689697266,"longitude":-69.21682739257812,"country_name":"Argentina"},"5123":{"name":"Río Grande","latitude":-53.78603744506836,"longitude":-67.70022583007812,"country_name":"Argentina"},"5125":{"name":"Salta","latitude":-24.782127380371094,"longitude":-65.4231948852539,"country_name":"Argentina"},"5126":{"name":"San Fernando del Valle de Catamarca","latitude":-28.469581604003906,"longitude":-65.779541015625,"country_name":"Argentina"},"5127":{"name":"San Juan","latitude":-31.535106658935547,"longitude":-68.5385971069336,"country_name":"Argentina"},"5128":{"name":"San Luis","latitude":-33.301727294921875,"longitude":-66.33775329589844,"country_name":"Argentina"},"5129":{"name":"San Martín de los Andes","latitude":-40.15721130371094,"longitude":-71.35244750976562,"country_name":"Argentina"},"5130":{"name":"San Miguel de Tucumán","latitude":-26.808284759521484,"longitude":-65.21759033203125,"country_name":"Argentina"},"5131":{"name":"San Rafael","latitude":-34.599998474121094,"longitude":-68.33333587646484,"country_name":"Argentina"},"5132":{"name":"San Salvador de Jujuy","latitude":-24.1857852935791,"longitude":-65.29947662353516,"country_name":"Argentina"},"5133":{"name":"Santa Fe","latitude":-31.610658645629883,"longitude":-60.69729232788086,"country_name":"Argentina"},"5134":{"name":"Santa Rosa","latitude":-36.62092208862305,"longitude":-64.2912368774414,"country_name":"Argentina"},"5135":{"name":"Santiago del Estero","latitude":-27.783357620239258,"longitude":-64.26416778564453,"country_name":"Argentina"},"5136":{"name":"Termas de Río Hondo","latitude":-27.49855613708496,"longitude":-64.86053466796875,"country_name":"Argentina"},"5137":{"name":"Trelew","latitude":-43.24930191040039,"longitude":-65.30763244628906,"country_name":"Argentina"},"5138":{"name":"Ushuaia","latitude":-54.801910400390625,"longitude":-68.30294799804688,"country_name":"Argentina"},"5139":{"name":"Viedma","latitude":-40.81190872192383,"longitude":-62.9962043762207,"country_name":"Argentina"},"35":{"name":"Yerevan","latitude":40.18000030517578,"longitude":44.5099983215332,"country_name":"Armenia"},"3798":{"name":"Adelaide","latitude":-34.928497314453125,"longitude":138.60073852539062,"country_name":"Australia"},"3799":{"name":"Albany","latitude":-35.027530670166016,"longitude":117.88395690917969,"country_name":"Australia"},"3800":{"name":"Albury","latitude":-36.07373046875,"longitude":146.91354370117188,"country_name":"Australia"},"3801":{"name":"Alice Springs","latitude":-23.698041915893555,"longitude":133.88075256347656,"country_name":"Australia"},"3802":{"name":"Armidale","latitude":-30.501562118530273,"longitude":151.66619873046875,"country_name":"Australia"},"3803":{"name":"Aurukun","latitude":-13.356389045715332,"longitude":141.72694396972656,"country_name":"Australia"},"3804":{"name":"Badu Island","latitude":-10.120278358459473,"longitude":142.13916015625,"country_name":"Australia"},"3805":{"name":"Ballina","latitude":-28.83796501159668,"longitude":153.5629119873047,"country_name":"Australia"},"3806":{"name":"Bamaga","latitude":-10.890217781066895,"longitude":142.38937377929688,"country_name":"Australia"},"3807":{"name":"Barcaldine","latitude":-23.556320190429688,"longitude":145.2933349609375,"country_name":"Australia"},"3808":{"name":"Bedourie","latitude":-24.33221435546875,"longitude":139.46197509765625,"country_name":"Australia"},"3809":{"name":"Bendigo","latitude":-36.75,"longitude":144.26666259765625,"country_name":"Australia"},"3810":{"name":"Biloela","latitude":-24.397668838500977,"longitude":150.5164337158203,"country_name":"Australia"},"3812":{"name":"Blackall","latitude":-24.416667938232422,"longitude":145.46665954589844,"country_name":"Australia"},"3813":{"name":"Boigu Island","latitude":-9.266667366027832,"longitude":142.21665954589844,"country_name":"Australia"},"3814":{"name":"Boulia","latitude":-22.911306381225586,"longitude":139.9104461669922,"country_name":"Australia"},"3815":{"name":"Brisbane","latitude":-27.469770431518555,"longitude":153.02513122558594,"country_name":"Australia"},"3816":{"name":"Broken Hill","latitude":-31.95391273498535,"longitude":141.4539337158203,"country_name":"Australia"},"3817":{"name":"Broome","latitude":-17.96143341064453,"longitude":122.23585510253906,"country_name":"Australia"},"3818":{"name":"Bundaberg Region","latitude":-24.958160400390625,"longitude":152.26266479492188,"country_name":"Australia"},"3819":{"name":"Burketown","latitude":-17.852214813232422,"longitude":139.63323974609375,"country_name":"Australia"},"3820":{"name":"Burnie","latitude":-41.0528564453125,"longitude":145.90521240234375,"country_name":"Australia"},"3821":{"name":"Busselton","latitude":-33.69249725341797,"longitude":115.39527893066406,"country_name":"Australia"},"3822":{"name":"Cairns","latitude":-16.918550491333008,"longitude":145.77806091308594,"country_name":"Australia"},"3823":{"name":"Canberra","latitude":-35.28093719482422,"longitude":149.1300048828125,"country_name":"Australia"},"3824":{"name":"Carnarvon","latitude":-24.884000778198242,"longitude":113.66100311279297,"country_name":"Australia"},"3825":{"name":"Ceduna","latitude":-32.130584716796875,"longitude":133.6817169189453,"country_name":"Australia"},"3826":{"name":"Charleville","latitude":-26.402061462402344,"longitude":146.245361328125,"country_name":"Australia"},"3827":{"name":"City of Launceston","latitude":-41.433223724365234,"longitude":147.1440887451172,"country_name":"Australia"},"3828":{"name":"City of Newcastle","latitude":-32.95648956298828,"longitude":151.67718505859375,"country_name":"Australia"},"3829":{"name":"City of Wollongong","latitude":-34.42781066894531,"longitude":150.89306640625,"country_name":"Australia"},"3830":{"name":"Cloncurry","latitude":-20.706392288208008,"longitude":140.5093231201172,"country_name":"Australia"},"3833":{"name":"Coffs Harbour","latitude":-30.298612594604492,"longitude":153.10939025878906,"country_name":"Australia"},"3834":{"name":"Coober Pedy","latitude":-29.01384925842285,"longitude":134.7532501220703,"country_name":"Australia"},"3835":{"name":"Cunnamulla","latitude":-28.076095581054688,"longitude":145.6876983642578,"country_name":"Australia"},"3836":{"name":"Darnley Island","latitude":-9.586999893188477,"longitude":143.77099609375,"country_name":"Australia"},"3837":{"name":"Darwin","latitude":-12.46343994140625,"longitude":130.84564208984375,"country_name":"Australia"},"3838":{"name":"Devonport","latitude":-41.177059173583984,"longitude":146.34518432617188,"country_name":"Australia"},"3839":{"name":"Doomadgee","latitude":-17.940776824951172,"longitude":138.8269500732422,"country_name":"Australia"},"3840":{"name":"Dubbo","latitude":-32.231502532958984,"longitude":148.63296508789062,"country_name":"Australia"},"3842":{"name":"Emerald","latitude":-23.52729034423828,"longitude":148.16456604003906,"country_name":"Australia"},"3843":{"name":"Esperance","latitude":-33.860801696777344,"longitude":121.88961791992188,"country_name":"Australia"},"3844":{"name":"Exmouth","latitude":-21.94452667236328,"longitude":114.13130187988281,"country_name":"Australia"},"3845":{"name":"Geraldton","latitude":-28.777372360229492,"longitude":114.6149673461914,"country_name":"Australia"},"3846":{"name":"Gladstone","latitude":-23.842649459838867,"longitude":151.2488555908203,"country_name":"Australia"},"3847":{"name":"Gold Coast","latitude":-28.016666412353516,"longitude":153.39999389648438,"country_name":"Australia"},"3848":{"name":"Griffith","latitude":-34.280086517333984,"longitude":146.0455322265625,"country_name":"Australia"},"3850":{"name":"Hamilton Island","latitude":-20.35122299194336,"longitude":148.9578857421875,"country_name":"Australia"},"3851":{"name":"Hervey Bay","latitude":-25.28815460205078,"longitude":152.76766967773438,"country_name":"Australia"},"3852":{"name":"Hobart","latitude":-42.882137298583984,"longitude":147.3271942138672,"country_name":"Australia"},"3853":{"name":"Horn Island","latitude":-10.611641883850098,"longitude":142.286865234375,"country_name":"Australia"},"3854":{"name":"Hughenden","latitude":-20.850000381469727,"longitude":144.1999969482422,"country_name":"Australia"},"3855":{"name":"Inverell","latitude":-29.76275062561035,"longitude":151.1102752685547,"country_name":"Australia"},"3856":{"name":"Julia Creek","latitude":-20.656185150146484,"longitude":141.7442169189453,"country_name":"Australia"},"3857":{"name":"Kalgoorlie","latitude":-30.749000549316406,"longitude":121.46600341796875,"country_name":"Australia"},"3858":{"name":"Karratha","latitude":-20.735349655151367,"longitude":116.8458023071289,"country_name":"Australia"},"3860":{"name":"King Island","latitude":-39.87534713745117,"longitude":143.93707275390625,"country_name":"Australia"},"3861":{"name":"Kingscote","latitude":-35.6530876159668,"longitude":137.63397216796875,"country_name":"Australia"},"3862":{"name":"Kowanyama","latitude":-15.473967552185059,"longitude":141.74522399902344,"country_name":"Australia"},"3863":{"name":"Kununurra","latitude":-15.77854061126709,"longitude":128.74168395996094,"country_name":"Australia"},"3864":{"name":"Lockhart River","latitude":-12.783332824707031,"longitude":143.35000610351562,"country_name":"Australia"},"3866":{"name":"Longreach","latitude":-23.44219207763672,"longitude":144.25550842285156,"country_name":"Australia"},"3867":{"name":"Lord Howe Island","latitude":-31.555326461791992,"longitude":159.08212280273438,"country_name":"Australia"},"3868":{"name":"Mackay","latitude":-21.14249610900879,"longitude":149.18214416503906,"country_name":"Australia"},"73":{"name":"Melbourne","latitude":-37.810001373291016,"longitude":144.9600067138672,"country_name":"Australia"},"3871":{"name":"Merimbula","latitude":-36.887550354003906,"longitude":149.90586853027344,"country_name":"Australia"},"3872":{"name":"Mildura","latitude":-34.20801544189453,"longitude":142.1245574951172,"country_name":"Australia"},"3874":{"name":"Moa Island","latitude":-10.170599937438965,"longitude":142.2550048828125,"country_name":"Australia"},"3875":{"name":"Monkey Mia","latitude":-25.800384521484375,"longitude":113.70559692382812,"country_name":"Australia"},"3876":{"name":"Moranbah","latitude":-22.002777099609375,"longitude":148.05792236328125,"country_name":"Australia"},"3877":{"name":"Moree","latitude":-29.46583366394043,"longitude":149.83389282226562,"country_name":"Australia"},"3878":{"name":"Mornington Island","latitude":-16.517486572265625,"longitude":139.40594482421875,"country_name":"Australia"},"3879":{"name":"Moruya","latitude":-35.907310485839844,"longitude":150.09280395507812,"country_name":"Australia"},"3880":{"name":"Mount Gambier","latitude":-37.82842254638672,"longitude":140.7803497314453,"country_name":"Australia"},"3881":{"name":"Mount Isa","latitude":-20.725574493408203,"longitude":139.49270629882812,"country_name":"Australia"},"3883":{"name":"Murray Island","latitude":-9.918600082397461,"longitude":144.0493927001953,"country_name":"Australia"},"3884":{"name":"Narrabri","latitude":-30.33240509033203,"longitude":149.78123474121094,"country_name":"Australia"},"3885":{"name":"Narrandera","latitude":-34.73798370361328,"longitude":146.55767822265625,"country_name":"Australia"},"3886":{"name":"Newman","latitude":-23.35932159423828,"longitude":119.73503112792969,"country_name":"Australia"},"3887":{"name":"Nhulunbuy","latitude":-12.182499885559082,"longitude":136.7819366455078,"country_name":"Australia"},"3888":{"name":"Normanton","latitude":-17.67422866821289,"longitude":141.0752410888672,"country_name":"Australia"},"3889":{"name":"Olympic Dam","latitude":-30.44051742553711,"longitude":136.8727569580078,"country_name":"Australia"},"3890":{"name":"Onslow","latitude":-21.640172958374023,"longitude":115.1123046875,"country_name":"Australia"},"3891":{"name":"Orange","latitude":-33.28333282470703,"longitude":149.10000610351562,"country_name":"Australia"},"3892":{"name":"Paraburdoo","latitude":-23.201841354370117,"longitude":117.66793823242188,"country_name":"Australia"},"3893":{"name":"Parkes","latitude":-33.13729476928711,"longitude":148.17471313476562,"country_name":"Australia"},"3894":{"name":"Perth","latitude":-31.95052719116211,"longitude":115.86045837402344,"country_name":"Australia"},"3895":{"name":"Pormpuraaw","latitude":-14.896944046020508,"longitude":141.60972595214844,"country_name":"Australia"},"3896":{"name":"Port Hedland","latitude":-20.31066131591797,"longitude":118.58782196044922,"country_name":"Australia"},"3897":{"name":"Port Lincoln","latitude":-34.730194091796875,"longitude":135.85047912597656,"country_name":"Australia"},"3898":{"name":"Port Macquarie","latitude":-31.433332443237305,"longitude":152.89999389648438,"country_name":"Australia"},"3899":{"name":"Proserpine","latitude":-20.404979705810547,"longitude":148.5807647705078,"country_name":"Australia"},"3900":{"name":"Quilpie","latitude":-26.616666793823242,"longitude":144.26666259765625,"country_name":"Australia"},"3901":{"name":"Richmond","latitude":-20.73055648803711,"longitude":143.14222717285156,"country_name":"Australia"},"3902":{"name":"Rockhampton","latitude":-23.379077911376953,"longitude":150.510009765625,"country_name":"Australia"},"3903":{"name":"Roma","latitude":-26.569448471069336,"longitude":148.7837677001953,"country_name":"Australia"},"3904":{"name":"Saibai Island","latitude":-9.405099868774414,"longitude":142.6920928955078,"country_name":"Australia"},"3905":{"name":"St George","latitude":-28.04227066040039,"longitude":148.58670043945312,"country_name":"Australia"},"3906":{"name":"Sue Islet","latitude":-10.207500457763672,"longitude":142.82440185546875,"country_name":"Australia"},"3907":{"name":"Sunshine Coast Region","latitude":-26.74681282043457,"longitude":152.92059326171875,"country_name":"Australia"},"72":{"name":"Sydney","latitude":-33.869998931884766,"longitude":151.2100067138672,"country_name":"Australia"},"3908":{"name":"Tamworth","latitude":-31.092748641967773,"longitude":150.93203735351562,"country_name":"Australia"},"3910":{"name":"Thargomindah","latitude":-27.994443893432617,"longitude":143.82293701171875,"country_name":"Australia"},"3911":{"name":"Toowoomba","latitude":-27.5598201751709,"longitude":151.95066833496094,"country_name":"Australia"},"3912":{"name":"Townsville","latitude":-19.25896453857422,"longitude":146.81695556640625,"country_name":"Australia"},"3913":{"name":"Uluru","latitude":-25.34442710876465,"longitude":131.03688049316406,"country_name":"Australia"},"3914":{"name":"Wagga Wagga","latitude":-35.10816955566406,"longitude":147.35983276367188,"country_name":"Australia"},"3915":{"name":"Weipa","latitude":-12.649293899536133,"longitude":141.84698486328125,"country_name":"Australia"},"3916":{"name":"Whyalla","latitude":-33.037967681884766,"longitude":137.5753173828125,"country_name":"Australia"},"3917":{"name":"Windorah","latitude":-25.420555114746094,"longitude":142.65472412109375,"country_name":"Australia"},"3918":{"name":"Winton","latitude":-22.391300201416016,"longitude":143.03810119628906,"country_name":"Australia"},"3919":{"name":"Yam Island","latitude":-9.901399612426758,"longitude":142.77499389648438,"country_name":"Australia"},"3920":{"name":"Yorke Island","latitude":-9.744999885559082,"longitude":143.4340057373047,"country_name":"Australia"},"181":{"name":"Graz","latitude":47.06999969482422,"longitude":15.430000305175781,"country_name":"Austria"},"202":{"name":"Innsbruck","latitude":47.27000045776367,"longitude":11.390000343322754,"country_name":"Austria"},"209":{"name":"Klagenfurt","latitude":46.619998931884766,"longitude":14.300000190734863,"country_name":"Austria"},"219":{"name":"Linz","latitude":48.29999923706055,"longitude":14.279999732971191,"country_name":"Austria"},"308":{"name":"Salzburg","latitude":47.79999923706055,"longitude":13.050000190734863,"country_name":"Austria"},"6753":{"name":"St Anton","latitude":47.12745666503906,"longitude":10.267007827758789,"country_name":"Austria"},"348":{"name":"Vienna","latitude":48.209999084472656,"longitude":16.3700008392334,"country_name":"Austria"},"34":{"name":"Baku","latitude":40.369998931884766,"longitude":49.84000015258789,"country_name":"Azerbaijan"},"2859":{"name":"Ganja","latitude":40.68785858154297,"longitude":46.37232971191406,"country_name":"Azerbaijan"},"2860":{"name":"Nakhchivan","latitude":39.20091247558594,"longitude":45.408226013183594,"country_name":"Azerbaijan"},"4679":{"name":"Almeirim","latitude":-1.522778034210205,"longitude":-52.58194351196289,"country_name":"Bahamas"},"4680":{"name":"Aripuanã","latitude":-10.172109603881836,"longitude":-59.45492172241211,"country_name":"Bahamas"},"4681":{"name":"Berry Islands","latitude":25.71666717529297,"longitude":-77.83333587646484,"country_name":"Bahamas"},"4682":{"name":"Bimini","latitude":25.73329734802246,"longitude":-79.27293395996094,"country_name":"Bahamas"},"4683":{"name":"Breves","latitude":-1.6827499866485596,"longitude":-50.481040954589844,"country_name":"Bahamas"},"4684":{"name":"Crooked Island","latitude":22.639097213745117,"longitude":-74.00650787353516,"country_name":"Bahamas"},"4685":{"name":"Deadmans Cay Settlement","latitude":23.233333587646484,"longitude":-75.23332977294922,"country_name":"Bahamas"},"4686":{"name":"Freeport","latitude":26.541608810424805,"longitude":-78.64554595947266,"country_name":"Bahamas"},"4687":{"name":"George Town","latitude":23.505773544311523,"longitude":-75.78075408935547,"country_name":"Bahamas"},"4688":{"name":"Governors Harbour","latitude":25.252573013305664,"longitude":-76.31071472167969,"country_name":"Bahamas"},"4689":{"name":"Inagua","latitude":21.06560707092285,"longitude":-73.3237075805664,"country_name":"Bahamas"},"4690":{"name":"Marsh Harbour","latitude":26.5241641998291,"longitude":-77.09098052978516,"country_name":"Bahamas"},"4691":{"name":"Mayaguana","latitude":22.401771545410156,"longitude":-73.06414031982422,"country_name":"Bahamas"},"4692":{"name":"Monte Alegre","latitude":-2.0022668838500977,"longitude":-54.07174301147461,"country_name":"Bahamas"},"4693":{"name":"Nassau","latitude":25.047983169555664,"longitude":-77.35541534423828,"country_name":"Bahamas"},"4694":{"name":"North Eleuthera","latitude":25.464752197265625,"longitude":-76.67591857910156,"country_name":"Bahamas"},"4695":{"name":"Porot de Moz","latitude":-1.747778058052063,"longitude":-52.23777770996094,"country_name":"Bahamas"},"4696":{"name":"Rock Sound","latitude":24.879051208496094,"longitude":-76.15808868408203,"country_name":"Bahamas"},"4697":{"name":"San Salvador Island","latitude":24.07755470275879,"longitude":-74.47600555419922,"country_name":"Bahamas"},"4698":{"name":"Spring Point","latitude":22.43242073059082,"longitude":-73.98055267333984,"country_name":"Bahamas"},"32":{"name":"Manama","latitude":26.0,"longitude":50.54999923706055,"country_name":"Bahrain"},"1083":{"name":"Barisal","latitude":22.70292091369629,"longitude":90.34659576416016,"country_name":"Bangladesh"},"1084":{"name":"Chittagong","latitude":22.347536087036133,"longitude":91.81233215332031,"country_name":"Bangladesh"},"1085":{"name":"Coxs Bazar","latitude":21.439464569091797,"longitude":92.00772857666016,"country_name":"Bangladesh"},"23":{"name":"Dhaka","latitude":23.810331344604492,"longitude":90.41252136230469,"country_name":"Bangladesh"},"1086":{"name":"Jessore","latitude":23.17776870727539,"longitude":89.18012237548828,"country_name":"Bangladesh"},"1087":{"name":"Rajshahi","latitude":24.363588333129883,"longitude":88.62413787841797,"country_name":"Bangladesh"},"1088":{"name":"Saidpur","latitude":25.7829532623291,"longitude":88.89826965332031,"country_name":"Bangladesh"},"1089":{"name":"Sylhet","latitude":24.904539108276367,"longitude":91.86109924316406,"country_name":"Bangladesh"},"5229":{"name":"Bridgetown","latitude":13.113222122192383,"longitude":-59.59880828857422,"country_name":"Barbados"},"374":{"name":"Brest","latitude":52.08000183105469,"longitude":23.700000762939453,"country_name":"Belarus"},"373":{"name":"Gomel","latitude":52.439998626708984,"longitude":30.979999542236328,"country_name":"Belarus"},"376":{"name":"Grodno","latitude":53.66999816894531,"longitude":23.81999969482422,"country_name":"Belarus"},"372":{"name":"Minsk","latitude":53.900001525878906,"longitude":27.559999465942383,"country_name":"Belarus"},"375":{"name":"Vitebsk","latitude":55.18000030517578,"longitude":30.170000076293945,"country_name":"Belarus"},"100":{"name":"Antwerp","latitude":51.220001220703125,"longitude":4.400000095367432,"country_name":"Belgium"},"5145":{"name":"Arlon","latitude":49.68276596069336,"longitude":5.81192684173584,"country_name":"Belgium"},"5147":{"name":"Bruges","latitude":51.1974983215332,"longitude":3.217942953109741,"country_name":"Belgium"},"116":{"name":"Brussels","latitude":50.849998474121094,"longitude":4.349999904632568,"country_name":"Belgium"},"5149":{"name":"Ghent","latitude":51.05281066894531,"longitude":3.725059986114502,"country_name":"Belgium"},"211":{"name":"Kortrijk","latitude":50.83000183105469,"longitude":3.2699999809265137,"country_name":"Belgium"},"220":{"name":"Liège","latitude":50.630001068115234,"longitude":5.590000152587891,"country_name":"Belgium"},"272":{"name":"Ostend","latitude":51.22999954223633,"longitude":2.9200000762939453,"country_name":"Belgium"},"1011":{"name":"Belize City","latitude":17.504566192626953,"longitude":-88.19621276855469,"country_name":"Belize"},"1012":{"name":"Caye Caulker","latitude":17.761157989501953,"longitude":-88.02774810791016,"country_name":"Belize"},"1013":{"name":"Corozal Town","latitude":18.403079986572266,"longitude":-88.3967514038086,"country_name":"Belize"},"1014":{"name":"Dangriga","latitude":16.969560623168945,"longitude":-88.23151397705078,"country_name":"Belize"},"1015":{"name":"Independence and Mango Creek","latitude":16.53475570678711,"longitude":-88.41615295410156,"country_name":"Belize"},"1016":{"name":"Placencia","latitude":16.521160125732422,"longitude":-88.37127685546875,"country_name":"Belize"},"1017":{"name":"Punta Gorda","latitude":16.098934173583984,"longitude":-88.80949401855469,"country_name":"Belize"},"1018":{"name":"San Pedro Town","latitude":17.92136573791504,"longitude":-87.96109008789062,"country_name":"Belize"},"3325":{"name":"Cotonou","latitude":6.370293140411377,"longitude":2.3912360668182373,"country_name":"Benin"},"1910":{"name":"Paro","latitude":27.42868423461914,"longitude":89.41636657714844,"country_name":"Bhutan"},"547":{"name":"Thimphu","latitude":27.479999542236328,"longitude":89.62999725341797,"country_name":"Bhutan"},"4525":{"name":"Cobija","latitude":-11.034392356872559,"longitude":-68.78107452392578,"country_name":"Bolivia"},"4526":{"name":"Cochabamba","latitude":-17.413976669311523,"longitude":-66.16532135009766,"country_name":"Bolivia"},"4527":{"name":"Guayaramerín","latitude":-10.823758125305176,"longitude":-65.36883544921875,"country_name":"Bolivia"},"4528":{"name":"La Paz","latitude":-16.489688873291016,"longitude":-68.11929321289062,"country_name":"Bolivia"},"4529":{"name":"Oruro","latitude":-17.964677810668945,"longitude":-67.10603332519531,"country_name":"Bolivia"},"4530":{"name":"Riberalta","latitude":-11.00733757019043,"longitude":-66.0582504272461,"country_name":"Bolivia"},"4531":{"name":"Rurrenabaque","latitude":-14.429611206054688,"longitude":-67.53509521484375,"country_name":"Bolivia"},"4532":{"name":"Santa Cruz de la Sierra","latitude":-17.81458282470703,"longitude":-63.15608596801758,"country_name":"Bolivia"},"4533":{"name":"Sucre","latitude":-19.01958465576172,"longitude":-65.261962890625,"country_name":"Bolivia"},"4534":{"name":"Tarija","latitude":-21.52138328552246,"longitude":-64.72809600830078,"country_name":"Bolivia"},"4535":{"name":"Trinidad","latitude":-14.82583236694336,"longitude":-64.9000244140625,"country_name":"Bolivia"},"4536":{"name":"Uyuni","latitude":-20.46035385131836,"longitude":-66.82606506347656,"country_name":"Bolivia"},"4537":{"name":"Yacuíba","latitude":-22.022756576538086,"longitude":-63.67752456665039,"country_name":"Bolivia"},"118":{"name":"Banja Luka","latitude":44.77000045776367,"longitude":17.18000030517578,"country_name":"Bosnia & Herzegovina"},"2922":{"name":"Livno","latitude":43.82498550415039,"longitude":17.007688522338867,"country_name":"Bosnia & Herzegovina"},"2927":{"name":"Mostar","latitude":43.33333206176758,"longitude":17.799999237060547,"country_name":"Bosnia & Herzegovina"},"310":{"name":"Sarajevo","latitude":43.869998931884766,"longitude":18.420000076293945,"country_name":"Bosnia & Herzegovina"},"2935":{"name":"Srebrenik","latitude":44.70746612548828,"longitude":18.49182891845703,"country_name":"Bosnia & Herzegovina"},"2940":{"name":"Tuzla","latitude":44.53746032714844,"longitude":18.67346954345703,"country_name":"Bosnia & Herzegovina"},"1911":{"name":"Francistown","latitude":-21.166099548339844,"longitude":27.514360427856445,"country_name":"Botswana"},"1912":{"name":"Gaborone","latitude":-24.62820816040039,"longitude":25.923147201538086,"country_name":"Botswana"},"1913":{"name":"Kasane","latitude":-17.795230865478516,"longitude":25.17112922668457,"country_name":"Botswana"},"1914":{"name":"Maun","latitude":-19.995262145996094,"longitude":23.41807746887207,"country_name":"Botswana"},"4540":{"name":"Alegrete","latitude":-29.78378677368164,"longitude":-55.79098129272461,"country_name":"Brazil"},"4541":{"name":"Alta Floresta","latitude":-9.86715030670166,"longitude":-56.087188720703125,"country_name":"Brazil"},"4542":{"name":"Altamira","latitude":-3.1986660957336426,"longitude":-52.21039962768555,"country_name":"Brazil"},"4543":{"name":"Aracaju","latitude":-10.947246551513672,"longitude":-37.073081970214844,"country_name":"Brazil"},"4544":{"name":"Aracati","latitude":-4.561944007873535,"longitude":-37.77000045776367,"country_name":"Brazil"},"4546":{"name":"Araguaína","latitude":-7.19277286529541,"longitude":-48.20482635498047,"country_name":"Brazil"},"4547":{"name":"Araripina","latitude":-7.576842784881592,"longitude":-40.497650146484375,"country_name":"Brazil"},"4548":{"name":"Araxá","latitude":-19.590648651123047,"longitude":-46.94424057006836,"country_name":"Brazil"},"4545":{"name":"Araçatuba","latitude":-21.208118438720703,"longitude":-50.44057846069336,"country_name":"Brazil"},"4549":{"name":"Bagé","latitude":-31.330833435058594,"longitude":-54.1069450378418,"country_name":"Brazil"},"4550":{"name":"Barcelos","latitude":-0.9750000238418579,"longitude":-62.92388916015625,"country_name":"Brazil"},"4551":{"name":"Barra do Garças","latitude":-15.891619682312012,"longitude":-52.26188278198242,"country_name":"Brazil"},"4552":{"name":"Barreiras","latitude":-12.147747993469238,"longitude":-44.9953498840332,"country_name":"Brazil"},"4553":{"name":"Barreirinhas","latitude":-2.75,"longitude":-42.83333206176758,"country_name":"Brazil"},"4554":{"name":"Bauru","latitude":-22.3144588470459,"longitude":-49.05869674682617,"country_name":"Brazil"},"4556":{"name":"Belo Horizonte","latitude":-19.924501419067383,"longitude":-43.935237884521484,"country_name":"Brazil"},"4555":{"name":"Belém","latitude":-1.455778956413269,"longitude":-48.490196228027344,"country_name":"Brazil"},"4557":{"name":"Boa Vista","latitude":2.8235020637512207,"longitude":-60.67586135864258,"country_name":"Brazil"},"4558":{"name":"Bonito","latitude":-21.12862777709961,"longitude":-56.49289321899414,"country_name":"Brazil"},"4559":{"name":"Borba","latitude":-4.387777805328369,"longitude":-59.59388732910156,"country_name":"Brazil"},"4560":{"name":"Brasília","latitude":-15.794228553771973,"longitude":-47.88216781616211,"country_name":"Brazil"},"4561":{"name":"Cabo Frio","latitude":-22.886751174926758,"longitude":-42.02625274658203,"country_name":"Brazil"},"4562":{"name":"Cacoal","latitude":-11.434674263000488,"longitude":-61.45668411254883,"country_name":"Brazil"},"4563":{"name":"Cajazeiras","latitude":-6.889999866485596,"longitude":-38.5619010925293,"country_name":"Brazil"},"4564":{"name":"Caldas Novas","latitude":-17.744518280029297,"longitude":-48.62502670288086,"country_name":"Brazil"},"4565":{"name":"Campina Grande","latitude":-7.229074954986572,"longitude":-35.88083267211914,"country_name":"Brazil"},"4566":{"name":"Campo Grande","latitude":-20.469764709472656,"longitude":-54.620235443115234,"country_name":"Brazil"},"4567":{"name":"Campos dos Goytacazes","latitude":-21.76266860961914,"longitude":-41.318450927734375,"country_name":"Brazil"},"4568":{"name":"Canela","latitude":-29.36166763305664,"longitude":-50.815555572509766,"country_name":"Brazil"},"4570":{"name":"Caruaru","latitude":-8.282777786254883,"longitude":-35.975833892822266,"country_name":"Brazil"},"4571":{"name":"Cascavel","latitude":-24.957883834838867,"longitude":-53.45954513549805,"country_name":"Brazil"},"4572":{"name":"Caxias do Sul","latitude":-29.163402557373047,"longitude":-51.17966842651367,"country_name":"Brazil"},"4573":{"name":"Chapecó","latitude":-27.100933074951172,"longitude":-52.615699768066406,"country_name":"Brazil"},"4574":{"name":"Coari","latitude":-4.085000038146973,"longitude":-63.14083480834961,"country_name":"Brazil"},"4575":{"name":"Correia Pinto","latitude":-27.583332061767578,"longitude":-50.400001525878906,"country_name":"Brazil"},"4576":{"name":"Corumbá","latitude":-19.008169174194336,"longitude":-57.65155029296875,"country_name":"Brazil"},"4577":{"name":"Crateús","latitude":-5.177000045776367,"longitude":-40.667999267578125,"country_name":"Brazil"},"4578":{"name":"\"Cruz, Ceará\"","latitude":-2.92205810546875,"longitude":-40.17589569091797,"country_name":"Brazil"},"4579":{"name":"Cruzeiro do Sul","latitude":-7.628040790557861,"longitude":-72.67616271972656,"country_name":"Brazil"},"4580":{"name":"Cuiabá","latitude":-15.601410865783691,"longitude":-56.09789276123047,"country_name":"Brazil"},"4581":{"name":"Curitiba","latitude":-25.424428939819336,"longitude":-49.265380859375,"country_name":"Brazil"},"4582":{"name":"Eirunepé","latitude":-6.659999847412109,"longitude":-69.87388610839844,"country_name":"Brazil"},"4583":{"name":"Feira de Santana","latitude":-12.259726524353027,"longitude":-38.96466064453125,"country_name":"Brazil"},"4584":{"name":"Fernando de Noronha","latitude":-3.8576300144195557,"longitude":-32.42973709106445,"country_name":"Brazil"},"4585":{"name":"Florianópolis","latitude":-27.595378875732422,"longitude":-48.54804992675781,"country_name":"Brazil"},"4586":{"name":"Fortaleza","latitude":-3.7318620681762695,"longitude":-38.526668548583984,"country_name":"Brazil"},"4587":{"name":"Foz do Iguaçu","latitude":-25.516246795654297,"longitude":-54.58542251586914,"country_name":"Brazil"},"4588":{"name":"Garanhuns","latitude":-8.890277862548828,"longitude":-36.49277877807617,"country_name":"Brazil"},"4589":{"name":"Goiânia","latitude":-16.68688201904297,"longitude":-49.26478958129883,"country_name":"Brazil"},"4590":{"name":"Governador Valadares","latitude":-18.85493278503418,"longitude":-41.9559211730957,"country_name":"Brazil"},"4591":{"name":"Guanambi","latitude":-14.2227783203125,"longitude":-42.78083419799805,"country_name":"Brazil"},"4592":{"name":"Guarapuava","latitude":-25.383333206176758,"longitude":-51.45000076293945,"country_name":"Brazil"},"4593":{"name":"Iguatu","latitude":-6.358889102935791,"longitude":-39.29888916015625,"country_name":"Brazil"},"4594":{"name":"Ilhéus","latitude":-14.793191909790039,"longitude":-39.04640197753906,"country_name":"Brazil"},"4595":{"name":"Imperatriz","latitude":-5.520565032958984,"longitude":-47.47184753417969,"country_name":"Brazil"},"4596":{"name":"Ipatinga","latitude":-19.470762252807617,"longitude":-42.548011779785156,"country_name":"Brazil"},"4597":{"name":"Itaituba","latitude":-4.267099857330322,"longitude":-55.993099212646484,"country_name":"Brazil"},"4598":{"name":"Jaguaruna","latitude":-28.618854522705078,"longitude":-49.025054931640625,"country_name":"Brazil"},"4599":{"name":"Ji-Paraná","latitude":-10.878141403198242,"longitude":-61.932674407958984,"country_name":"Brazil"},"4601":{"name":"Joinville","latitude":-26.304407119750977,"longitude":-48.84638214111328,"country_name":"Brazil"},"4600":{"name":"\"João Pessoa, Paraíba\"","latitude":-7.119495868682861,"longitude":-34.84486770629883,"country_name":"Brazil"},"4602":{"name":"Juazeiro do Norte","latitude":-7.22847318649292,"longitude":-39.3121223449707,"country_name":"Brazil"},"4604":{"name":"Juiz de Fora","latitude":-21.76242446899414,"longitude":-43.34339904785156,"country_name":"Brazil"},"4605":{"name":"Juruti","latitude":-2.152221918106079,"longitude":-56.092220306396484,"country_name":"Brazil"},"4603":{"name":"Juína","latitude":-11.377799987792969,"longitude":-58.74079895019531,"country_name":"Brazil"},"4607":{"name":"Lençóis","latitude":-12.56277847290039,"longitude":-41.38999938964844,"country_name":"Brazil"},"4608":{"name":"Linhares","latitude":-19.38944435119629,"longitude":-40.067779541015625,"country_name":"Brazil"},"4609":{"name":"Londrina","latitude":-23.304452896118164,"longitude":-51.16958236694336,"country_name":"Brazil"},"4606":{"name":"Lábrea","latitude":-7.258889198303223,"longitude":-64.79777526855469,"country_name":"Brazil"},"4610":{"name":"Macapá","latitude":0.03557400032877922,"longitude":-51.070533752441406,"country_name":"Brazil"},"4611":{"name":"Maceió","latitude":-9.649855613708496,"longitude":-35.708919525146484,"country_name":"Brazil"},"4612":{"name":"Manaus","latitude":-3.119028091430664,"longitude":-60.021732330322266,"country_name":"Brazil"},"4613":{"name":"Manhuacu","latitude":-20.258056640625,"longitude":-42.03361129760742,"country_name":"Brazil"},"4614":{"name":"Manicoré","latitude":-5.813186168670654,"longitude":-61.30774688720703,"country_name":"Brazil"},"4615":{"name":"\"Marabá, Pará\"","latitude":-5.381135940551758,"longitude":-49.13310241699219,"country_name":"Brazil"},"4617":{"name":"Maringá","latitude":-23.42099952697754,"longitude":-51.93305587768555,"country_name":"Brazil"},"4616":{"name":"Marília","latitude":-22.217599868774414,"longitude":-49.95050811767578,"country_name":"Brazil"},"4618":{"name":"Maués","latitude":-3.383610963821411,"longitude":-57.71861267089844,"country_name":"Brazil"},"4619":{"name":"Montes Claros","latitude":-16.728641510009766,"longitude":-43.85821533203125,"country_name":"Brazil"},"4620":{"name":"Mossoro","latitude":-5.184100151062012,"longitude":-37.347801208496094,"country_name":"Brazil"},"4621":{"name":"Natal","latitude":-5.779256820678711,"longitude":-35.2009162902832,"country_name":"Brazil"},"4622":{"name":"Navegantes","latitude":-26.894792556762695,"longitude":-48.655067443847656,"country_name":"Brazil"},"4623":{"name":"Oriximina","latitude":-1.7655600309371948,"longitude":-55.866111755371094,"country_name":"Brazil"},"4624":{"name":"Palmas","latitude":-10.249091148376465,"longitude":-48.32428741455078,"country_name":"Brazil"},"4625":{"name":"Paracatu","latitude":-17.22166633605957,"longitude":-46.875,"country_name":"Brazil"},"4626":{"name":"Parauapebas","latitude":-6.070305824279785,"longitude":-50.06669616699219,"country_name":"Brazil"},"4627":{"name":"Parintins","latitude":-2.637782096862793,"longitude":-56.72954177856445,"country_name":"Brazil"},"4628":{"name":"Parnaíba","latitude":-2.9055449962615967,"longitude":-41.77336120605469,"country_name":"Brazil"},"4629":{"name":"Passo Fundo","latitude":-28.25878143310547,"longitude":-52.4160041809082,"country_name":"Brazil"},"4630":{"name":"Patos","latitude":-7.024444103240967,"longitude":-37.279998779296875,"country_name":"Brazil"},"4631":{"name":"Patos de Minas","latitude":-18.581666946411133,"longitude":-46.51472091674805,"country_name":"Brazil"},"4632":{"name":"Paulo Afonso","latitude":-9.40612506866455,"longitude":-38.216373443603516,"country_name":"Brazil"},"4633":{"name":"Pelotas","latitude":-31.765399932861328,"longitude":-52.337589263916016,"country_name":"Brazil"},"4634":{"name":"Petrolina","latitude":-9.383508682250977,"longitude":-40.507904052734375,"country_name":"Brazil"},"4635":{"name":"Ponta Grossa","latitude":-25.099424362182617,"longitude":-50.158321380615234,"country_name":"Brazil"},"4636":{"name":"Porto Alegre","latitude":-30.03464698791504,"longitude":-51.21765899658203,"country_name":"Brazil"},"4637":{"name":"Porto Seguro","latitude":-16.444412231445312,"longitude":-39.065330505371094,"country_name":"Brazil"},"4638":{"name":"Porto Velho","latitude":-8.761160850524902,"longitude":-63.900428771972656,"country_name":"Brazil"},"4639":{"name":"\"Presidente Prudente, São Paulo\"","latitude":-22.12111473083496,"longitude":-51.39302444458008,"country_name":"Brazil"},"4640":{"name":"Recife","latitude":-8.047561645507812,"longitude":-34.8769645690918,"country_name":"Brazil"},"4641":{"name":"Ribeirão Preto","latitude":-21.17051124572754,"longitude":-47.810245513916016,"country_name":"Brazil"},"4642":{"name":"\"Rio Branco, Acre\"","latitude":-9.975383758544922,"longitude":-67.82492065429688,"country_name":"Brazil"},"4643":{"name":"\"Rio Verde, Goiás\"","latitude":-17.792743682861328,"longitude":-50.91966247558594,"country_name":"Brazil"},"64":{"name":"Rio de Janeiro","latitude":-22.90999984741211,"longitude":-43.20000076293945,"country_name":"Brazil"},"4644":{"name":"Rondonópolis","latitude":-16.46547508239746,"longitude":-54.63872146606445,"country_name":"Brazil"},"4645":{"name":"Saint Isabel of Black River","latitude":-0.41388899087905884,"longitude":-65.01889038085938,"country_name":"Brazil"},"4646":{"name":"Salinas","latitude":-16.167451858520508,"longitude":-42.292789459228516,"country_name":"Brazil"},"4647":{"name":"Salinópolis","latitude":-0.6228820085525513,"longitude":-47.346885681152344,"country_name":"Brazil"},"4648":{"name":"Salvador","latitude":-12.972217559814453,"longitude":-38.50141525268555,"country_name":"Brazil"},"4649":{"name":"Santa Cruz do Sul","latitude":-29.717777252197266,"longitude":-52.42583465576172,"country_name":"Brazil"},"4650":{"name":"Santa Maria","latitude":-29.6872501373291,"longitude":-53.81544876098633,"country_name":"Brazil"},"4651":{"name":"Santa Rosa","latitude":-27.867000579833984,"longitude":-54.46699905395508,"country_name":"Brazil"},"4652":{"name":"Santarém","latitude":-2.4506289958953857,"longitude":-54.700923919677734,"country_name":"Brazil"},"4653":{"name":"Santo Ângelo","latitude":-28.30061149597168,"longitude":-54.26730728149414,"country_name":"Brazil"},"4657":{"name":"Sao Jose Dos Campos","latitude":-23.22369956970215,"longitude":-45.900901794433594,"country_name":"Brazil"},"4661":{"name":"Serra Talhada","latitude":-7.985833168029785,"longitude":-38.295833587646484,"country_name":"Brazil"},"4662":{"name":"\"Sinop, Mato Grosso\"","latitude":-11.860845565795898,"longitude":-55.509544372558594,"country_name":"Brazil"},"4663":{"name":"Sobral","latitude":-3.673888921737671,"longitude":-40.238887786865234,"country_name":"Brazil"},"4664":{"name":"Sorriso","latitude":-12.542945861816406,"longitude":-55.72153854370117,"country_name":"Brazil"},"4654":{"name":"São Benedito","latitude":-4.04888916015625,"longitude":-40.8650016784668,"country_name":"Brazil"},"4655":{"name":"São Gabriel da Cachoeira","latitude":-0.11559999734163284,"longitude":-67.08830261230469,"country_name":"Brazil"},"4656":{"name":"São José do Rio Preto","latitude":-20.8117618560791,"longitude":-49.37622833251953,"country_name":"Brazil"},"4658":{"name":"São Luís","latitude":-2.539109945297241,"longitude":-44.28290557861328,"country_name":"Brazil"},"4659":{"name":"São Paulo","latitude":-23.550519943237305,"longitude":-46.63330841064453,"country_name":"Brazil"},"4660":{"name":"São Raimundo Nonato","latitude":-9.015000343322754,"longitude":-42.698890686035156,"country_name":"Brazil"},"4665":{"name":"Tabatinga","latitude":-4.231630802154541,"longitude":-69.93692779541016,"country_name":"Brazil"},"4666":{"name":"Tefé","latitude":-3.3514750003814697,"longitude":-64.7148208618164,"country_name":"Brazil"},"4667":{"name":"Teixeira de Freitas","latitude":-17.54003143310547,"longitude":-39.74217987060547,"country_name":"Brazil"},"4669":{"name":"Teresina","latitude":-5.092010974884033,"longitude":-42.80376052856445,"country_name":"Brazil"},"4668":{"name":"Teófilo Otoni","latitude":-17.857778549194336,"longitude":-41.505001068115234,"country_name":"Brazil"},"4670":{"name":"Três Lagoas","latitude":-20.788169860839844,"longitude":-51.70304870605469,"country_name":"Brazil"},"4671":{"name":"Uberaba","latitude":-19.74737548828125,"longitude":-47.93916320800781,"country_name":"Brazil"},"4672":{"name":"Uberlândia","latitude":-18.914608001708984,"longitude":-48.2753791809082,"country_name":"Brazil"},"4673":{"name":"Una","latitude":-15.283332824707031,"longitude":-39.06666564941406,"country_name":"Brazil"},"4674":{"name":"Uruguaiana","latitude":-29.761911392211914,"longitude":-57.08584213256836,"country_name":"Brazil"},"4675":{"name":"Varginha","latitude":-21.556066513061523,"longitude":-45.43685531616211,"country_name":"Brazil"},"4676":{"name":"Vilhena","latitude":-12.741402626037598,"longitude":-60.13045883178711,"country_name":"Brazil"},"4677":{"name":"Vitória da Conquista","latitude":-14.861924171447754,"longitude":-40.84453582763672,"country_name":"Brazil"},"4678":{"name":"\"Vitória, Espírito Santo\"","latitude":-20.297618865966797,"longitude":-40.2957763671875,"country_name":"Brazil"},"27":{"name":"Bandar Seri Begawan","latitude":4.920000076293945,"longitude":114.91999816894531,"country_name":"Brunei"},"5772":{"name":"Bansko","latitude":41.837890625,"longitude":23.48917007446289,"country_name":"Bulgaria"},"117":{"name":"Burgas","latitude":42.5,"longitude":27.469999313354492,"country_name":"Bulgaria"},"5776":{"name":"Dobrinishte","latitude":41.82090377807617,"longitude":23.562713623046875,"country_name":"Bulgaria"},"5780":{"name":"Haskovo","latitude":41.934696197509766,"longitude":25.555511474609375,"country_name":"Bulgaria"},"5794":{"name":"Montana","latitude":43.409637451171875,"longitude":23.225595474243164,"country_name":"Bulgaria"},"5799":{"name":"Pazardzhik","latitude":42.19231414794922,"longitude":24.333316802978516,"country_name":"Bulgaria"},"280":{"name":"Plovdiv","latitude":42.13999938964844,"longitude":24.75,"country_name":"Bulgaria"},"5809":{"name":"Sandanski","latitude":41.56787872314453,"longitude":23.280088424682617,"country_name":"Bulgaria"},"309":{"name":"Sofia","latitude":42.70000076293945,"longitude":23.31999969482422,"country_name":"Bulgaria"},"5815":{"name":"Stara Zagora","latitude":42.432777404785156,"longitude":25.641944885253906,"country_name":"Bulgaria"},"349":{"name":"Varna","latitude":43.209999084472656,"longitude":27.920000076293945,"country_name":"Bulgaria"},"4538":{"name":"Bobo-Dioulasso","latitude":11.164921760559082,"longitude":-4.305153846740723,"country_name":"Burkina Faso"},"4539":{"name":"Ouagadougou","latitude":12.371427536010742,"longitude":-1.5196599960327148,"country_name":"Burkina Faso"},"1128":{"name":"Bujumbura","latitude":-3.3613779544830322,"longitude":29.359878540039062,"country_name":"Burundi"},"5612":{"name":"Abidjan","latitude":5.359951972961426,"longitude":-4.008255958557129,"country_name":"Côte d’Ivoire"},"5613":{"name":"Bouaké","latitude":7.690465927124023,"longitude":-5.039053916931152,"country_name":"Côte d’Ivoire"},"5614":{"name":"Korhogo","latitude":9.466934204101562,"longitude":-5.614255905151367,"country_name":"Côte d’Ivoire"},"5615":{"name":"Man","latitude":7.271944046020508,"longitude":-7.587500095367432,"country_name":"Côte d’Ivoire"},"5616":{"name":"Odienné","latitude":9.518875122070312,"longitude":-7.557222843170166,"country_name":"Côte d’Ivoire"},"5617":{"name":"\"San-Pédro, Ivory Coast\"","latitude":4.757868766784668,"longitude":-6.642433166503906,"country_name":"Côte d’Ivoire"},"3750":{"name":"Boa Vista","latitude":16.09501075744629,"longitude":-22.80783462524414,"country_name":"Cape Verde"},"3751":{"name":"Praia","latitude":14.933050155639648,"longitude":-23.51332664489746,"country_name":"Cape Verde"},"3752":{"name":"Sal","latitude":16.72661590576172,"longitude":-22.929710388183594,"country_name":"Cape Verde"},"3753":{"name":"São Vicente","latitude":16.828006744384766,"longitude":-24.97541618347168,"country_name":"Cape Verde"},"11":{"name":"Phnom Penh","latitude":11.569999694824219,"longitude":104.91999816894531,"country_name":"Cambodia"},"2777":{"name":"Siem Reap","latitude":13.367096900939941,"longitude":103.84481048583984,"country_name":"Cambodia"},"2778":{"name":"Sihanoukville Province","latitude":10.6253023147583,"longitude":103.52339935302734,"country_name":"Cambodia"},"1054":{"name":"Bafoussam","latitude":5.480751991271973,"longitude":10.428418159484863,"country_name":"Cameroon"},"1055":{"name":"Douala","latitude":4.051055908203125,"longitude":9.767868995666504,"country_name":"Cameroon"},"1056":{"name":"Garoua","latitude":9.322602272033691,"longitude":13.393388748168945,"country_name":"Cameroon"},"1057":{"name":"Maroua","latitude":10.592529296875,"longitude":14.321009635925293,"country_name":"Cameroon"},"1058":{"name":"Ngaoundéré","latitude":7.338149070739746,"longitude":13.566829681396484,"country_name":"Cameroon"},"1059":{"name":"Yaoundé","latitude":3.848031997680664,"longitude":11.5020751953125,"country_name":"Cameroon"},"1129":{"name":"Abbotsford","latitude":49.050437927246094,"longitude":-122.3044662475586,"country_name":"Canada"},"1131":{"name":"Akulivik","latitude":60.81768035888672,"longitude":-78.14424133300781,"country_name":"Canada"},"1135":{"name":"Anahim Lake","latitude":52.46666717529297,"longitude":-125.31666564941406,"country_name":"Canada"},"1137":{"name":"Arctic Bay","latitude":73.0375747680664,"longitude":-85.14803314208984,"country_name":"Canada"},"1141":{"name":"Arviat","latitude":61.107826232910156,"longitude":-94.06237030029297,"country_name":"Canada"},"1143":{"name":"Attawapiskat First Nation","latitude":52.92588424682617,"longitude":-82.42889404296875,"country_name":"Canada"},"1144":{"name":"Aupaluk","latitude":59.30574035644531,"longitude":-69.59748840332031,"country_name":"Canada"},"1147":{"name":"\"Baker Lake, Nunavut\"","latitude":64.3176040649414,"longitude":-96.02200317382812,"country_name":"Canada"},"1149":{"name":"Bathurst","latitude":47.618350982666016,"longitude":-65.65133666992188,"country_name":"Canada"},"1151":{"name":"Bella Bella","latitude":52.16054153442383,"longitude":-128.1455841064453,"country_name":"Canada"},"1152":{"name":"Bella Coola","latitude":52.372127532958984,"longitude":-126.75393676757812,"country_name":"Canada"},"1155":{"name":"Blanc-Sablon","latitude":51.42644500732422,"longitude":-57.13131332397461,"country_name":"Canada"},"1158":{"name":"Bonaventure","latitude":48.071434020996094,"longitude":-65.45289611816406,"country_name":"Canada"},"1162":{"name":"Brandon","latitude":49.848472595214844,"longitude":-99.95008850097656,"country_name":"Canada"},"1165":{"name":"\"Brochet, Manitoba\"","latitude":57.880767822265625,"longitude":-101.67022705078125,"country_name":"Canada"},"781":{"name":"Calgary","latitude":51.04999923706055,"longitude":-114.06999969482422,"country_name":"Canada"},"1170":{"name":"Cambridge Bay","latitude":69.11686706542969,"longitude":-105.05968475341797,"country_name":"Canada"},"1171":{"name":"Campbell River","latitude":50.03312301635742,"longitude":-125.2733383178711,"country_name":"Canada"},"1174":{"name":"Cape Dorset","latitude":64.23037719726562,"longitude":-76.54096221923828,"country_name":"Canada"},"1179":{"name":"Castlegar","latitude":49.3237419128418,"longitude":-117.65933227539062,"country_name":"Canada"},"1185":{"name":"Charlottetown","latitude":46.23823928833008,"longitude":-63.13106918334961,"country_name":"Canada"},"1189":{"name":"\"Chesterfield Inlet, Nunavut\"","latitude":63.34651565551758,"longitude":-90.73682403564453,"country_name":"Canada"},"1191":{"name":"Chibougamau","latitude":49.913230895996094,"longitude":-74.36920166015625,"country_name":"Canada"},"1193":{"name":"Chisasibi","latitude":53.80555725097656,"longitude":-78.91694641113281,"country_name":"Canada"},"1194":{"name":"Churchill","latitude":58.768409729003906,"longitude":-94.16496276855469,"country_name":"Canada"},"1195":{"name":"Churchill Falls","latitude":53.557010650634766,"longitude":-64.10932922363281,"country_name":"Canada"},"1198":{"name":"\"Clyde River, Nunavut\"","latitude":70.47636413574219,"longitude":-68.60126495361328,"country_name":"Canada"},"1201":{"name":"Comox","latitude":49.67351150512695,"longitude":-124.92826843261719,"country_name":"Canada"},"1202":{"name":"Coral Harbour","latitude":64.13883209228516,"longitude":-83.1698989868164,"country_name":"Canada"},"1205":{"name":"Cranbrook","latitude":49.51296615600586,"longitude":-115.76940155029297,"country_name":"Canada"},"1209":{"name":"Dartmouth","latitude":44.699851989746094,"longitude":-63.55788803100586,"country_name":"Canada"},"1213":{"name":"Deer Lake NL","latitude":49.17316818237305,"longitude":-57.43387222290039,"country_name":"Canada"},"1217":{"name":"Dryden","latitude":49.780094146728516,"longitude":-92.83695983886719,"country_name":"Canada"},"1218":{"name":"\"Eastmain, Quebec\"","latitude":52.23372268676758,"longitude":-78.51776123046875,"country_name":"Canada"},"782":{"name":"Edmonton","latitude":53.529998779296875,"longitude":-113.48999786376953,"country_name":"Canada"},"1224":{"name":"Falmouth","latitude":44.996925354003906,"longitude":-64.15802764892578,"country_name":"Canada"},"1225":{"name":"Flin Flon","latitude":54.765769958496094,"longitude":-101.87621307373047,"country_name":"Canada"},"1228":{"name":"Fond du lac","latitude":59.31666564941406,"longitude":-107.18333435058594,"country_name":"Canada"},"1229":{"name":"Fort Albany First Nation","latitude":52.20775604248047,"longitude":-81.68445587158203,"country_name":"Canada"},"1230":{"name":"Fort Frances","latitude":48.609947204589844,"longitude":-93.3955307006836,"country_name":"Canada"},"1232":{"name":"Fort McMurray","latitude":56.72637939453125,"longitude":-111.38034057617188,"country_name":"Canada"},"1233":{"name":"Fort Nelson","latitude":58.805015563964844,"longitude":-122.69723510742188,"country_name":"Canada"},"1235":{"name":"Fort Simpson","latitude":61.862796783447266,"longitude":-121.35303497314453,"country_name":"Canada"},"1236":{"name":"Fort St. John","latitude":56.25242233276367,"longitude":-120.8464126586914,"country_name":"Canada"},"1237":{"name":"Fredericton","latitude":45.96358871459961,"longitude":-66.64311218261719,"country_name":"Canada"},"1239":{"name":"Gander","latitude":48.95440673828125,"longitude":-54.610347747802734,"country_name":"Canada"},"1240":{"name":"Gaspé","latitude":48.831634521484375,"longitude":-64.48690032958984,"country_name":"Canada"},"1243":{"name":"Gillam","latitude":56.348026275634766,"longitude":-94.70912170410156,"country_name":"Canada"},"1244":{"name":"Gjoa Haven","latitude":68.63555908203125,"longitude":-95.84972381591797,"country_name":"Canada"},"1248":{"name":"\"Gods Lake Narrows, Manitoba\"","latitude":54.55360794067383,"longitude":-94.49408721923828,"country_name":"Canada"},"1252":{"name":"Grande Prairie","latitude":55.16994094848633,"longitude":-118.79861450195312,"country_name":"Canada"},"1255":{"name":"Greater Sudbury","latitude":46.522098541259766,"longitude":-80.95303344726562,"country_name":"Canada"},"790":{"name":"Halifax","latitude":44.650001525878906,"longitude":-63.59000015258789,"country_name":"Canada"},"1260":{"name":"Hall Beach","latitude":68.77273559570312,"longitude":-81.2352066040039,"country_name":"Canada"},"786":{"name":"Hamilton","latitude":43.2599983215332,"longitude":-79.87000274658203,"country_name":"Canada"},"1262":{"name":"Happy Valley-Goose Bay","latitude":53.30168151855469,"longitude":-60.32608413696289,"country_name":"Canada"},"1264":{"name":"Hay River","latitude":60.816219329833984,"longitude":-115.78536224365234,"country_name":"Canada"},"1267":{"name":"High Level","latitude":58.516353607177734,"longitude":-117.13516235351562,"country_name":"Canada"},"1270":{"name":"Hopedale","latitude":55.45795440673828,"longitude":-60.21148681640625,"country_name":"Canada"},"1275":{"name":"Igloolik","latitude":69.37250518798828,"longitude":-81.82465362548828,"country_name":"Canada"},"1278":{"name":"Inukjuak","latitude":58.45512008666992,"longitude":-78.1051025390625,"country_name":"Canada"},"1279":{"name":"Inuvik","latitude":68.3607406616211,"longitude":-133.7230224609375,"country_name":"Canada"},"1280":{"name":"Iqaluit","latitude":63.7466926574707,"longitude":-68.5169677734375,"country_name":"Canada"},"1284":{"name":"Ivujivik","latitude":62.41666793823242,"longitude":-77.91666412353516,"country_name":"Canada"},"1289":{"name":"Kamloops","latitude":50.674522399902344,"longitude":-120.3272705078125,"country_name":"Canada"},"1291":{"name":"Kangiqsualujjuaq","latitude":58.71015548706055,"longitude":-65.9951171875,"country_name":"Canada"},"1293":{"name":"Kangirsuk","latitude":60.023414611816406,"longitude":-70.02623748779297,"country_name":"Canada"},"1296":{"name":"Kashechewan","latitude":52.29151916503906,"longitude":-81.64070129394531,"country_name":"Canada"},"797":{"name":"Kelowna","latitude":49.88999938964844,"longitude":-119.5,"country_name":"Canada"},"1298":{"name":"Kenora","latitude":49.76704025268555,"longitude":-94.48939514160156,"country_name":"Canada"},"1300":{"name":"Kimmirut","latitude":62.84741973876953,"longitude":-69.86920166015625,"country_name":"Canada"},"1306":{"name":"Kugaaruk","latitude":68.53472137451172,"longitude":-89.82499694824219,"country_name":"Canada"},"1307":{"name":"Kugluktuk","latitude":67.82523345947266,"longitude":-115.09654998779297,"country_name":"Canada"},"1308":{"name":"Kuujjuaq","latitude":58.102996826171875,"longitude":-68.41883850097656,"country_name":"Canada"},"1309":{"name":"Kuujjuarapik","latitude":55.27457046508789,"longitude":-77.76378631591797,"country_name":"Canada"},"1310":{"name":"La Grande River","latitude":53.62527847290039,"longitude":-77.70417022705078,"country_name":"Canada"},"1313":{"name":"La Ronge","latitude":55.099998474121094,"longitude":-105.30000305175781,"country_name":"Canada"},"1317":{"name":"\"Lac Brochet, Manitoba\"","latitude":58.61907958984375,"longitude":-101.48634338378906,"country_name":"Canada"},"1321":{"name":"\"Les Îles-de-la-Madeleine, Quebec\"","latitude":47.387786865234375,"longitude":-61.901275634765625,"country_name":"Canada"},"1322":{"name":"Lethbridge","latitude":49.69348907470703,"longitude":-112.84184265136719,"country_name":"Canada"},"1323":{"name":"Lloydminster","latitude":53.27796173095703,"longitude":-110.00614166259766,"country_name":"Canada"},"1324":{"name":"London","latitude":42.9869499206543,"longitude":-81.24317932128906,"country_name":"Canada"},"1328":{"name":"Makkovik","latitude":55.08616638183594,"longitude":-59.17643356323242,"country_name":"Canada"},"1331":{"name":"Masset","latitude":54.01145935058594,"longitude":-132.14720153808594,"country_name":"Canada"},"1337":{"name":"Medicine Hat","latitude":50.040550231933594,"longitude":-110.67642974853516,"country_name":"Canada"},"1343":{"name":"Moncton","latitude":46.08781814575195,"longitude":-64.77822875976562,"country_name":"Canada"},"1344":{"name":"Mont-Joli","latitude":48.58561325073242,"longitude":-68.19010162353516,"country_name":"Canada"},"780":{"name":"Montreal","latitude":45.5099983215332,"longitude":-73.55999755859375,"country_name":"Canada"},"1346":{"name":"Moosonee","latitude":51.27309036254883,"longitude":-80.64005279541016,"country_name":"Canada"},"1350":{"name":"Nanaimo","latitude":49.1658821105957,"longitude":-123.9400634765625,"country_name":"Canada"},"1353":{"name":"Natuashish","latitude":55.91680145263672,"longitude":-61.12911605834961,"country_name":"Canada"},"1354":{"name":"Naujaat","latitude":66.5282974243164,"longitude":-86.24465942382812,"country_name":"Canada"},"1355":{"name":"Nemaska","latitude":51.69102096557617,"longitude":-76.13600158691406,"country_name":"Canada"},"1361":{"name":"Norman Wells","latitude":65.281494140625,"longitude":-126.82865142822266,"country_name":"Canada"},"1362":{"name":"North Bay","latitude":46.30911636352539,"longitude":-79.46082305908203,"country_name":"Canada"},"1363":{"name":"North Spirit Lake","latitude":52.506858825683594,"longitude":-93.02371215820312,"country_name":"Canada"},"783":{"name":"Ottawa","latitude":45.41999816894531,"longitude":-75.69999694824219,"country_name":"Canada"},"1372":{"name":"\"Oxford House, Manitoba\"","latitude":54.949981689453125,"longitude":-95.2657470703125,"country_name":"Canada"},"1373":{"name":"Pangnirtung","latitude":66.14656066894531,"longitude":-65.70121765136719,"country_name":"Canada"},"1379":{"name":"Penticton","latitude":49.49913787841797,"longitude":-119.59370422363281,"country_name":"Canada"},"1384":{"name":"Pikangikum First Nation","latitude":51.80424118041992,"longitude":-93.99270629882812,"country_name":"Canada"},"1389":{"name":"Points Ńorth Landing","latitude":58.276668548583984,"longitude":-104.0824966430664,"country_name":"Canada"},"1390":{"name":"Pond Inlet","latitude":72.70011901855469,"longitude":-77.95853424072266,"country_name":"Canada"},"1392":{"name":"Port Hardy","latitude":50.720821380615234,"longitude":-127.49666595458984,"country_name":"Canada"},"1396":{"name":"Postville","latitude":54.908203125,"longitude":-59.772491455078125,"country_name":"Canada"},"1397":{"name":"\"Powell River, British Columbia\"","latitude":49.835235595703125,"longitude":-124.52470397949219,"country_name":"Canada"},"1398":{"name":"Prince Albert","latitude":53.20000076293945,"longitude":-105.75,"country_name":"Canada"},"1399":{"name":"Prince George","latitude":53.91706466674805,"longitude":-122.74967193603516,"country_name":"Canada"},"1400":{"name":"Prince Rupert","latitude":54.31503677368164,"longitude":-130.32081604003906,"country_name":"Canada"},"1401":{"name":"Puvirnituq","latitude":60.03711700439453,"longitude":-77.26923370361328,"country_name":"Canada"},"1402":{"name":"Qikiqtarjuaq","latitude":67.55559539794922,"longitude":-64.02568054199219,"country_name":"Canada"},"1403":{"name":"Quaqtaq","latitude":61.041725158691406,"longitude":-69.63992309570312,"country_name":"Canada"},"785":{"name":"Quebec City","latitude":46.810001373291016,"longitude":-71.20999908447266,"country_name":"Canada"},"1404":{"name":"Quesnel","latitude":52.98173522949219,"longitude":-122.49490356445312,"country_name":"Canada"},"1406":{"name":"Rankin Inlet","latitude":62.80837631225586,"longitude":-92.08528137207031,"country_name":"Canada"},"1408":{"name":"Red Lake","latitude":51.01459884643555,"longitude":-93.82891845703125,"country_name":"Canada"},"795":{"name":"Regina","latitude":50.45000076293945,"longitude":-104.61000061035156,"country_name":"Canada"},"1414":{"name":"Rigolet","latitude":54.1799201965332,"longitude":-58.4288330078125,"country_name":"Canada"},"1421":{"name":"Rouyn-Noranda","latitude":48.23423767089844,"longitude":-79.01878356933594,"country_name":"Canada"},"1422":{"name":"Sachigo Lake","latitude":53.794677734375,"longitude":-92.09178161621094,"country_name":"Canada"},"1424":{"name":"Saguenay","latitude":48.42805480957031,"longitude":-71.06848907470703,"country_name":"Canada"},"1426":{"name":"Saint John","latitude":45.2733154296875,"longitude":-66.06330871582031,"country_name":"Canada"},"1433":{"name":"Sandspit","latitude":53.24302673339844,"longitude":-131.8208770751953,"country_name":"Canada"},"1434":{"name":"Sandy Lake","latitude":53.06342697143555,"longitude":-93.32940673828125,"country_name":"Canada"},"1435":{"name":"Sanikiluaq","latitude":56.540767669677734,"longitude":-79.22321319580078,"country_name":"Canada"},"793":{"name":"Saskatoon","latitude":52.130001068115234,"longitude":-106.68000030517578,"country_name":"Canada"},"1437":{"name":"Sault Ste. Marie","latitude":46.49530029296875,"longitude":-84.3453140258789,"country_name":"Canada"},"1440":{"name":"Schefferville","latitude":54.82455825805664,"longitude":-66.8174819946289,"country_name":"Canada"},"1443":{"name":"Sept-Îles","latitude":50.21329879760742,"longitude":-66.37579345703125,"country_name":"Canada"},"1444":{"name":"Shamattawa First Nation","latitude":55.86172103881836,"longitude":-92.09840393066406,"country_name":"Canada"},"1448":{"name":"Sioux Lookout","latitude":50.09783172607422,"longitude":-91.92203521728516,"country_name":"Canada"},"1450":{"name":"Smithers","latitude":54.78235626220703,"longitude":-127.1685562133789,"country_name":"Canada"},"1453":{"name":"South Indian Lake","latitude":56.780696868896484,"longitude":-98.92810821533203,"country_name":"Canada"},"1456":{"name":"St. Anthony","latitude":51.37041473388672,"longitude":-55.595863342285156,"country_name":"Canada"},"1457":{"name":"St. John s","latitude":47.558998107910156,"longitude":-52.71329879760742,"country_name":"Canada"},"1461":{"name":"Stony Rapids","latitude":59.25469970703125,"longitude":-105.83899688720703,"country_name":"Canada"},"1468":{"name":"Sydney","latitude":46.13679122924805,"longitude":-60.1942253112793,"country_name":"Canada"},"1469":{"name":"Tadoule Lake","latitude":58.71406173706055,"longitude":-98.48155975341797,"country_name":"Canada"},"1470":{"name":"Taloyoak","latitude":69.53670501708984,"longitude":-93.527099609375,"country_name":"Canada"},"1471":{"name":"Tasiujaq","latitude":58.69740676879883,"longitude":-69.93739318847656,"country_name":"Canada"},"1473":{"name":"Terrace","latitude":54.518192291259766,"longitude":-128.6031494140625,"country_name":"Canada"},"1475":{"name":"The Pas","latitude":53.82552719116211,"longitude":-101.24761199951172,"country_name":"Canada"},"1478":{"name":"Thompson","latitude":55.74492645263672,"longitude":-97.85086822509766,"country_name":"Canada"},"1479":{"name":"Thunder Bay","latitude":48.38089370727539,"longitude":-89.2476806640625,"country_name":"Canada"},"1480":{"name":"Timmins","latitude":48.47582244873047,"longitude":-81.33049774169922,"country_name":"Canada"},"1481":{"name":"Tofino","latitude":49.152984619140625,"longitude":-125.9066162109375,"country_name":"Canada"},"63":{"name":"Toronto","latitude":43.7400016784668,"longitude":-79.37000274658203,"country_name":"Canada"},"1483":{"name":"Trail","latitude":49.0965690612793,"longitude":-117.71173095703125,"country_name":"Canada"},"1488":{"name":"Ulukhaktok","latitude":70.73674774169922,"longitude":-117.77044677734375,"country_name":"Canada"},"1489":{"name":"Umiujaq","latitude":56.55156326293945,"longitude":-76.54711151123047,"country_name":"Canada"},"1492":{"name":"Val-d Or","latitude":48.09870910644531,"longitude":-77.79676818847656,"country_name":"Canada"},"62":{"name":"Vancouver","latitude":49.25,"longitude":-123.0999984741211,"country_name":"Canada"},"789":{"name":"Victoria","latitude":48.43000030517578,"longitude":-123.36000061035156,"country_name":"Canada"},"1499":{"name":"Wabush","latitude":52.900428771972656,"longitude":-66.86553192138672,"country_name":"Canada"},"1503":{"name":"Waskaganish","latitude":51.36957550048828,"longitude":-78.69651794433594,"country_name":"Canada"},"1504":{"name":"Waterloo","latitude":43.464256286621094,"longitude":-80.5204086303711,"country_name":"Canada"},"1506":{"name":"\"Wemindji, Quebec\"","latitude":53.010555267333984,"longitude":-78.83110809326172,"country_name":"Canada"},"1509":{"name":"\"Whale Cove, Nunavut\"","latitude":62.242523193359375,"longitude":-92.60167694091797,"country_name":"Canada"},"1512":{"name":"Whitehorse","latitude":60.721187591552734,"longitude":-135.0568389892578,"country_name":"Canada"},"1513":{"name":"Williams Lake","latitude":52.14167404174805,"longitude":-122.14168548583984,"country_name":"Canada"},"792":{"name":"Windsor","latitude":42.279998779296875,"longitude":-83.0,"country_name":"Canada"},"784":{"name":"Winnipeg","latitude":49.880001068115234,"longitude":-97.1500015258789,"country_name":"Canada"},"1514":{"name":"Wollaston Lake","latitude":58.25,"longitude":-103.33333587646484,"country_name":"Canada"},"1517":{"name":"Yellowknife","latitude":62.45397186279297,"longitude":-114.37178802490234,"country_name":"Canada"},"1518":{"name":"York Factory First Nation","latitude":56.0897216796875,"longitude":-96.08944702148438,"country_name":"Canada"},"4128":{"name":"Bangui","latitude":4.394672870635986,"longitude":18.558189392089844,"country_name":"Central African Republic"},"2672":{"name":"N Djamena","latitude":12.134845733642578,"longitude":15.055741310119629,"country_name":"Chad"},"3922":{"name":"Antofagasta","latitude":-23.650928497314453,"longitude":-70.39749908447266,"country_name":"Chile"},"3923":{"name":"Arica","latitude":-18.478252410888672,"longitude":-70.3125991821289,"country_name":"Chile"},"3924":{"name":"Balmaceda","latitude":-45.90943145751953,"longitude":-71.69761657714844,"country_name":"Chile"},"3925":{"name":"Calama","latitude":-22.454391479492188,"longitude":-68.92938232421875,"country_name":"Chile"},"3926":{"name":"Castro","latitude":-42.480140686035156,"longitude":-73.76241302490234,"country_name":"Chile"},"3927":{"name":"Concepción","latitude":-36.820133209228516,"longitude":-73.04438781738281,"country_name":"Chile"},"3928":{"name":"Copiapó","latitude":-27.366575241088867,"longitude":-70.33216094970703,"country_name":"Chile"},"3929":{"name":"Easter Island","latitude":-27.11298942565918,"longitude":-109.34957885742188,"country_name":"Chile"},"3930":{"name":"El Salvador","latitude":-26.24388885498047,"longitude":-69.62527465820312,"country_name":"Chile"},"3931":{"name":"Iquique","latitude":-20.230703353881836,"longitude":-70.13566589355469,"country_name":"Chile"},"3932":{"name":"La Serena","latitude":-29.90266990661621,"longitude":-71.25193786621094,"country_name":"Chile"},"3933":{"name":"Osorno","latitude":-40.57619094848633,"longitude":-73.11494445800781,"country_name":"Chile"},"3935":{"name":"Puerto Montt","latitude":-41.46891784667969,"longitude":-72.9411392211914,"country_name":"Chile"},"3936":{"name":"Puerto Natales","latitude":-51.730892181396484,"longitude":-72.49774169921875,"country_name":"Chile"},"3938":{"name":"Punta Arenas","latitude":-53.16383361816406,"longitude":-70.91706848144531,"country_name":"Chile"},"3939":{"name":"Santiago de Chile","latitude":-33.448890686035156,"longitude":-70.66926574707031,"country_name":"Chile"},"3940":{"name":"Temuco","latitude":-38.73590087890625,"longitude":-72.59037780761719,"country_name":"Chile"},"3941":{"name":"Valdivia","latitude":-39.817378997802734,"longitude":-73.2425308227539,"country_name":"Chile"},"6798":{"name":"Aba Hongyuan","latitude":32.79090118408203,"longitude":102.54440307617188,"country_name":"China"},"6799":{"name":"Aksu City","latitude":41.16754913330078,"longitude":80.26338958740234,"country_name":"China"},"6800":{"name":"Altay Prefecture","latitude":47.84492492675781,"longitude":88.14125061035156,"country_name":"China"},"6801":{"name":"Ankang","latitude":32.68000030517578,"longitude":109.01721954345703,"country_name":"China"},"6802":{"name":"Anqing","latitude":30.531919479370117,"longitude":117.11510467529297,"country_name":"China"},"6803":{"name":"Anshan","latitude":41.108646392822266,"longitude":122.99433135986328,"country_name":"China"},"6805":{"name":"Arxan","latitude":47.17744064331055,"longitude":119.94357299804688,"country_name":"China"},"6806":{"name":"Baise","latitude":23.902332305908203,"longitude":106.61820220947266,"country_name":"China"},"6807":{"name":"Baishan","latitude":41.940975189208984,"longitude":126.42424774169922,"country_name":"China"},"6808":{"name":"\"Baoshan, Yunnan\"","latitude":25.112045288085938,"longitude":99.16175842285156,"country_name":"China"},"6809":{"name":"Baotou","latitude":40.657379150390625,"longitude":109.84034729003906,"country_name":"China"},"6810":{"name":"Bayannur","latitude":40.74321365356445,"longitude":107.38765716552734,"country_name":"China"},"6811":{"name":"Bazhong","latitude":31.850004196166992,"longitude":106.70000457763672,"country_name":"China"},"6812":{"name":"Beihai","latitude":21.481290817260742,"longitude":109.12016296386719,"country_name":"China"},"59":{"name":"Beijing","latitude":39.90999984741211,"longitude":116.38999938964844,"country_name":"China"},"6813":{"name":"Bijie","latitude":27.283954620361328,"longitude":105.29164123535156,"country_name":"China"},"6814":{"name":"Bole","latitude":44.8538703918457,"longitude":82.0510025024414,"country_name":"China"},"6815":{"name":"Burqin","latitude":48.383331298828125,"longitude":86.88333129882812,"country_name":"China"},"6817":{"name":"Changchun","latitude":43.817073822021484,"longitude":125.32354736328125,"country_name":"China"},"6818":{"name":"Changde","latitude":29.031673431396484,"longitude":111.69849395751953,"country_name":"China"},"6819":{"name":"Changsha","latitude":28.228208541870117,"longitude":112.93881225585938,"country_name":"China"},"6820":{"name":"Changzhi","latitude":36.19540786743164,"longitude":113.11640167236328,"country_name":"China"},"6821":{"name":"Changzhou","latitude":31.81122589111328,"longitude":119.97406005859375,"country_name":"China"},"6822":{"name":"\"Chaoyang, Liaoning\"","latitude":41.57365036010742,"longitude":120.44938659667969,"country_name":"China"},"6824":{"name":"Chengdu","latitude":30.572816848754883,"longitude":104.06680297851562,"country_name":"China"},"6826":{"name":"Chifeng","latitude":42.257816314697266,"longitude":118.88685607910156,"country_name":"China"},"6827":{"name":"Chizhou","latitude":30.6648006439209,"longitude":117.49156951904297,"country_name":"China"},"6828":{"name":"Chongqing","latitude":29.56300926208496,"longitude":106.55155944824219,"country_name":"China"},"6829":{"name":"Dali","latitude":25.60648536682129,"longitude":100.26763916015625,"country_name":"China"},"6830":{"name":"Dalian","latitude":38.91400146484375,"longitude":121.61468505859375,"country_name":"China"},"6831":{"name":"Dandong","latitude":40.00078582763672,"longitude":124.35445404052734,"country_name":"China"},"6832":{"name":"Daocheng County","latitude":29.037006378173828,"longitude":100.29840087890625,"country_name":"China"},"6833":{"name":"Daqing","latitude":46.58930969238281,"longitude":125.1037826538086,"country_name":"China"},"6834":{"name":"Datong","latitude":40.07676315307617,"longitude":113.30013275146484,"country_name":"China"},"6835":{"name":"Delingha","latitude":37.38330841064453,"longitude":97.38330841064453,"country_name":"China"},"6836":{"name":"Diqing Tibetan Autonomous Prefecture","latitude":27.818756103515625,"longitude":99.70225524902344,"country_name":"China"},"6837":{"name":"Dongying","latitude":37.434749603271484,"longitude":118.67476654052734,"country_name":"China"},"6838":{"name":"Dunhuang","latitude":40.142127990722656,"longitude":94.6619644165039,"country_name":"China"},"6839":{"name":"Enshi City","latitude":30.27215576171875,"longitude":109.48817443847656,"country_name":"China"},"6840":{"name":"Erenhot","latitude":43.65317153930664,"longitude":111.97794342041016,"country_name":"China"},"6841":{"name":"Fuyang","latitude":32.8901252746582,"longitude":115.81420135498047,"country_name":"China"},"6842":{"name":"\"Fuyuan, Heilongjiang\"","latitude":48.364688873291016,"longitude":134.30787658691406,"country_name":"China"},"6843":{"name":"Fuyun County","latitude":46.99411392211914,"longitude":89.52550506591797,"country_name":"China"},"6844":{"name":"Fuzhou","latitude":26.074508666992188,"longitude":119.29649353027344,"country_name":"China"},"6845":{"name":"Ganzhou","latitude":25.831829071044922,"longitude":114.93502807617188,"country_name":"China"},"6846":{"name":"Garzê","latitude":31.6333065032959,"longitude":100.01700592041016,"country_name":"China"},"6847":{"name":"Ghulja","latitude":43.97713851928711,"longitude":81.52745056152344,"country_name":"China"},"6848":{"name":"Golmud","latitude":36.406402587890625,"longitude":94.92848205566406,"country_name":"China"},"6849":{"name":"Golog Tibetan Autonomous Prefecture","latitude":34.471431732177734,"longitude":100.24481201171875,"country_name":"China"},"6850":{"name":"Guangyuan","latitude":32.4354362487793,"longitude":105.84335327148438,"country_name":"China"},"85":{"name":"Guangzhou","latitude":23.1299991607666,"longitude":113.26000213623047,"country_name":"China"},"61":{"name":"Guilin","latitude":25.270000457763672,"longitude":110.27999877929688,"country_name":"China"},"6851":{"name":"Guiyang","latitude":26.647661209106445,"longitude":106.63015747070312,"country_name":"China"},"6852":{"name":"Guyuan County","latitude":36.078887939453125,"longitude":106.21639251708984,"country_name":"China"},"6853":{"name":"Haikou","latitude":20.044002532958984,"longitude":110.19829559326172,"country_name":"China"},"6854":{"name":"Hailar","latitude":49.212188720703125,"longitude":119.73628234863281,"country_name":"China"},"6855":{"name":"Hami","latitude":42.81842041015625,"longitude":93.51515197753906,"country_name":"China"},"6856":{"name":"Handan","latitude":36.62565612792969,"longitude":114.5389633178711,"country_name":"China"},"6857":{"name":"Hangzhou","latitude":30.274084091186523,"longitude":120.15506744384766,"country_name":"China"},"6858":{"name":"Hanzhong","latitude":33.06747817993164,"longitude":107.02332305908203,"country_name":"China"},"6859":{"name":"Harbin","latitude":45.803775787353516,"longitude":126.53496551513672,"country_name":"China"},"6860":{"name":"Hechi","latitude":24.692930221557617,"longitude":108.08525848388672,"country_name":"China"},"6861":{"name":"Hefei","latitude":31.820592880249023,"longitude":117.22721862792969,"country_name":"China"},"6862":{"name":"Heihe","latitude":50.2451286315918,"longitude":127.5282974243164,"country_name":"China"},"6863":{"name":"Hengyang","latitude":26.893369674682617,"longitude":112.572021484375,"country_name":"China"},"6864":{"name":"Hohhot","latitude":40.842586517333984,"longitude":111.74918365478516,"country_name":"China"},"99":{"name":"Hong Kong","latitude":22.309999465942383,"longitude":114.19000244140625,"country_name":"China"},"6865":{"name":"Hotan","latitude":37.114158630371094,"longitude":79.92221069335938,"country_name":"China"},"6866":{"name":"Huai an","latitude":33.61035919189453,"longitude":119.01528930664062,"country_name":"China"},"6867":{"name":"Huaihua","latitude":27.569517135620117,"longitude":110.00192260742188,"country_name":"China"},"6868":{"name":"Huangshan City","latitude":29.71474838256836,"longitude":118.3376235961914,"country_name":"China"},"6869":{"name":"Huizhou","latitude":23.11225700378418,"longitude":114.41580200195312,"country_name":"China"},"6870":{"name":"Ji an","latitude":27.087636947631836,"longitude":114.9646987915039,"country_name":"China"},"6871":{"name":"Jiagedaqi District","latitude":50.425411224365234,"longitude":124.11881256103516,"country_name":"China"},"6872":{"name":"Jiamusi","latitude":46.79977798461914,"longitude":130.31887817382812,"country_name":"China"},"6873":{"name":"Jiansanjiang","latitude":47.25583267211914,"longitude":132.6263885498047,"country_name":"China"},"6874":{"name":"Jiayuguan City","latitude":39.773128509521484,"longitude":98.28915405273438,"country_name":"China"},"6875":{"name":"Jinan","latitude":36.651214599609375,"longitude":117.12000274658203,"country_name":"China"},"6876":{"name":"Jinchang","latitude":38.52008819580078,"longitude":102.18804168701172,"country_name":"China"},"6877":{"name":"Jingdezhen","latitude":29.268783569335938,"longitude":117.1784439086914,"country_name":"China"},"6878":{"name":"Jinghong","latitude":22.00014305114746,"longitude":100.77168273925781,"country_name":"China"},"6879":{"name":"Jingzhou","latitude":30.333332061767578,"longitude":112.21666717529297,"country_name":"China"},"6880":{"name":"Jining","latitude":35.414981842041016,"longitude":116.5872802734375,"country_name":"China"},"6881":{"name":"Jinzhou","latitude":41.09568405151367,"longitude":121.12684631347656,"country_name":"China"},"6882":{"name":"Jiujiang","latitude":29.704721450805664,"longitude":116.00194549560547,"country_name":"China"},"6883":{"name":"Jiuzhaigou County","latitude":33.25205612182617,"longitude":104.24384307861328,"country_name":"China"},"6884":{"name":"Jixi","latitude":45.295074462890625,"longitude":130.96932983398438,"country_name":"China"},"6885":{"name":"Kangding","latitude":30.14472198486328,"longitude":101.73777770996094,"country_name":"China"},"6886":{"name":"Karamay","latitude":45.57988739013672,"longitude":84.88920593261719,"country_name":"China"},"6887":{"name":"Kashgar","latitude":39.46768569946289,"longitude":75.99378967285156,"country_name":"China"},"6888":{"name":"Korla","latitude":41.72589111328125,"longitude":86.17462921142578,"country_name":"China"},"6889":{"name":"Kunming","latitude":24.880094528198242,"longitude":102.83289337158203,"country_name":"China"},"6890":{"name":"Kuqa County","latitude":41.7179069519043,"longitude":82.9620132446289,"country_name":"China"},"6891":{"name":"Lancang Lahu Autonomous County","latitude":22.53333282470703,"longitude":99.93333435058594,"country_name":"China"},"6892":{"name":"Lanzhou","latitude":36.06108856201172,"longitude":103.83430480957031,"country_name":"China"},"16":{"name":"Lhasa","latitude":29.649999618530273,"longitude":91.0999984741211,"country_name":"China"},"6893":{"name":"Lianyungang","latitude":34.59665298461914,"longitude":119.22161102294922,"country_name":"China"},"6894":{"name":"Lijiang","latitude":26.85504722595215,"longitude":100.22775268554688,"country_name":"China"},"6895":{"name":"Lincang","latitude":23.884153366088867,"longitude":100.08882141113281,"country_name":"China"},"6896":{"name":"Linfen","latitude":36.08800506591797,"longitude":111.51897430419922,"country_name":"China"},"6897":{"name":"Linyi","latitude":35.10467529296875,"longitude":118.35641479492188,"country_name":"China"},"6898":{"name":"Liuzhou","latitude":24.326038360595703,"longitude":109.42841339111328,"country_name":"China"},"6899":{"name":"Longnan","latitude":33.329959869384766,"longitude":105.05838012695312,"country_name":"China"},"6900":{"name":"Longyan","latitude":25.075122833251953,"longitude":117.01753997802734,"country_name":"China"},"6902":{"name":"Luoyang","latitude":34.61968231201172,"longitude":112.45404052734375,"country_name":"China"},"6903":{"name":"Luzhou","latitude":28.871810913085938,"longitude":105.4422607421875,"country_name":"China"},"6901":{"name":"Lüliang","latitude":37.518314361572266,"longitude":111.14431762695312,"country_name":"China"},"97":{"name":"Macau","latitude":22.200000762939453,"longitude":113.55000305175781,"country_name":"China"},"6904":{"name":"Mang City","latitude":24.43368911743164,"longitude":98.58808898925781,"country_name":"China"},"6906":{"name":"Manzhouli","latitude":49.59783935546875,"longitude":117.37853240966797,"country_name":"China"},"6907":{"name":"Meizhou","latitude":24.26416778564453,"longitude":116.09833526611328,"country_name":"China"},"6908":{"name":"Mianyang","latitude":31.46749496459961,"longitude":104.67894744873047,"country_name":"China"},"6909":{"name":"Mohe County","latitude":52.97227096557617,"longitude":122.53858947753906,"country_name":"China"},"6910":{"name":"Mudanjiang","latitude":44.55165481567383,"longitude":129.63316345214844,"country_name":"China"},"6911":{"name":"Nanchang","latitude":28.682891845703125,"longitude":115.85820007324219,"country_name":"China"},"6912":{"name":"Nanchong","latitude":30.837793350219727,"longitude":106.1106948852539,"country_name":"China"},"6913":{"name":"Nanjing","latitude":32.06025314331055,"longitude":118.796875,"country_name":"China"},"6914":{"name":"Nanning","latitude":22.817001342773438,"longitude":108.36654663085938,"country_name":"China"},"6915":{"name":"Nantong","latitude":31.98017120361328,"longitude":120.89429473876953,"country_name":"China"},"6916":{"name":"Nanyang","latitude":32.990665435791016,"longitude":112.52830505371094,"country_name":"China"},"6918":{"name":"Ningbo","latitude":29.868335723876953,"longitude":121.54399108886719,"country_name":"China"},"6920":{"name":"Nyingchi","latitude":29.649127960205078,"longitude":94.36148834228516,"country_name":"China"},"6921":{"name":"Ordos City","latitude":39.6082649230957,"longitude":109.78132629394531,"country_name":"China"},"6922":{"name":"Panzhihua","latitude":26.582347869873047,"longitude":101.71863555908203,"country_name":"China"},"6923":{"name":"Qianjiang District","latitude":29.53360939025879,"longitude":108.77067565917969,"country_name":"China"},"6925":{"name":"Qingdao","latitude":36.067108154296875,"longitude":120.38260650634766,"country_name":"China"},"6926":{"name":"Qingyang","latitude":24.796667098999023,"longitude":118.58916473388672,"country_name":"China"},"6927":{"name":"Qinhuangdao","latitude":39.93333435058594,"longitude":119.5999984741211,"country_name":"China"},"6928":{"name":"Qionghai","latitude":19.25834083557129,"longitude":110.47464752197266,"country_name":"China"},"6929":{"name":"Qiqihar","latitude":47.354347229003906,"longitude":123.91818237304688,"country_name":"China"},"6930":{"name":"Quanzhou","latitude":24.87413215637207,"longitude":118.67567443847656,"country_name":"China"},"6931":{"name":"Quzhou","latitude":28.97007942199707,"longitude":118.85945892333984,"country_name":"China"},"6932":{"name":"Rizhao","latitude":35.400001525878906,"longitude":119.31666564941406,"country_name":"China"},"6933":{"name":"Ruoqiang Town","latitude":39.0180549621582,"longitude":88.16805267333984,"country_name":"China"},"6934":{"name":"Sanming","latitude":26.26340675354004,"longitude":117.63867950439453,"country_name":"China"},"6935":{"name":"Sanya","latitude":18.25284767150879,"longitude":109.51190948486328,"country_name":"China"},"82":{"name":"Shanghai","latitude":31.170000076293945,"longitude":121.47000122070312,"country_name":"China"},"6936":{"name":"Shangrao","latitude":28.454862594604492,"longitude":117.94343566894531,"country_name":"China"},"6937":{"name":"Shantou","latitude":23.35409164428711,"longitude":116.68196868896484,"country_name":"China"},"6938":{"name":"Shaoyang","latitude":27.238950729370117,"longitude":111.4676742553711,"country_name":"China"},"6939":{"name":"Shenyang","latitude":41.80569839477539,"longitude":123.43147277832031,"country_name":"China"},"92":{"name":"Shenzhen","latitude":22.540000915527344,"longitude":114.05000305175781,"country_name":"China"},"6940":{"name":"Shigatse","latitude":29.266868591308594,"longitude":88.88058471679688,"country_name":"China"},"6941":{"name":"Shihezi","latitude":44.306095123291016,"longitude":86.08060455322266,"country_name":"China"},"6942":{"name":"Shijiazhuang","latitude":38.04230880737305,"longitude":114.51486206054688,"country_name":"China"},"6943":{"name":"Shiyan","latitude":32.629398345947266,"longitude":110.79826354980469,"country_name":"China"},"6944":{"name":"Simao District","latitude":22.786909103393555,"longitude":100.97716522216797,"country_name":"China"},"6946":{"name":"Tacheng Prefecture","latitude":46.745365142822266,"longitude":82.98031616210938,"country_name":"China"},"6947":{"name":"Taiyuan","latitude":37.87059020996094,"longitude":112.54888153076172,"country_name":"China"},"6948":{"name":"Taizhou","latitude":28.65637969970703,"longitude":121.42076110839844,"country_name":"China"},"6949":{"name":"Tangshan","latitude":39.63086700439453,"longitude":118.18019104003906,"country_name":"China"},"6950":{"name":"Tengchong","latitude":25.02043914794922,"longitude":98.490966796875,"country_name":"China"},"6951":{"name":"Tianjin","latitude":39.08415985107422,"longitude":117.20098114013672,"country_name":"China"},"6952":{"name":"Tonghua","latitude":41.72840118408203,"longitude":125.939697265625,"country_name":"China"},"6953":{"name":"Tongliao","latitude":43.652889251708984,"longitude":122.24344635009766,"country_name":"China"},"6954":{"name":"Tongren","latitude":27.731515884399414,"longitude":109.1895980834961,"country_name":"China"},"6955":{"name":"Tumxuk","latitude":39.866668701171875,"longitude":79.06666564941406,"country_name":"China"},"6956":{"name":"Turpan","latitude":42.951385498046875,"longitude":89.18965148925781,"country_name":"China"},"6957":{"name":"Ulan Hot","latitude":46.072731018066406,"longitude":122.09312438964844,"country_name":"China"},"6958":{"name":"Ulanqab","latitude":40.99478530883789,"longitude":113.13258361816406,"country_name":"China"},"6960":{"name":"Wanzhou District","latitude":30.807666778564453,"longitude":108.40866088867188,"country_name":"China"},"6961":{"name":"Weihai","latitude":37.51306915283203,"longitude":122.12042236328125,"country_name":"China"},"6962":{"name":"Wenshan City","latitude":23.400733947753906,"longitude":104.21624755859375,"country_name":"China"},"6963":{"name":"Wenzhou","latitude":27.99382781982422,"longitude":120.6993637084961,"country_name":"China"},"6964":{"name":"Wuhai","latitude":39.65538787841797,"longitude":106.79425048828125,"country_name":"China"},"6965":{"name":"Wuhan","latitude":30.59309959411621,"longitude":114.30538940429688,"country_name":"China"},"6966":{"name":"Wushan","latitude":31.033308029174805,"longitude":109.9330062866211,"country_name":"China"},"6967":{"name":"Wuxi","latitude":31.49117088317871,"longitude":120.3119125366211,"country_name":"China"},"6968":{"name":"\"Wuyishan, Fujian\"","latitude":27.75664710998535,"longitude":118.03530883789062,"country_name":"China"},"6969":{"name":"Wuzhou","latitude":23.483333587646484,"longitude":111.31666564941406,"country_name":"China"},"6970":{"name":"Xian","latitude":34.258331298828125,"longitude":108.9286117553711,"country_name":"China"},"6971":{"name":"Xiahe County","latitude":35.2025032043457,"longitude":102.52180480957031,"country_name":"China"},"6972":{"name":"Xiamen","latitude":24.479833602905273,"longitude":118.08942413330078,"country_name":"China"},"6973":{"name":"Xiangyang","latitude":32.00898742675781,"longitude":112.1224136352539,"country_name":"China"},"6974":{"name":"Xichang","latitude":27.89450454711914,"longitude":102.26445007324219,"country_name":"China"},"6975":{"name":"Xilinhot","latitude":43.93341064453125,"longitude":116.08602905273438,"country_name":"China"},"6976":{"name":"\"Xingyi, Guizhou\"","latitude":25.092039108276367,"longitude":104.89546966552734,"country_name":"China"},"6977":{"name":"Xining","latitude":36.61713409423828,"longitude":101.7782211303711,"country_name":"China"},"6978":{"name":"Xinyang","latitude":32.133331298828125,"longitude":114.05000305175781,"country_name":"China"},"6979":{"name":"Xinyuan County","latitude":43.432220458984375,"longitude":83.3822250366211,"country_name":"China"},"6980":{"name":"Xinzhou","latitude":38.416664123535156,"longitude":112.73417663574219,"country_name":"China"},"6981":{"name":"Xuzhou","latitude":34.20576858520508,"longitude":117.28412628173828,"country_name":"China"},"6982":{"name":"Yan an","latitude":36.585445404052734,"longitude":109.48975372314453,"country_name":"China"},"6983":{"name":"Yancheng","latitude":33.34731674194336,"longitude":120.16365814208984,"country_name":"China"},"6984":{"name":"Yangzhou","latitude":32.39421463012695,"longitude":119.41294860839844,"country_name":"China"},"6985":{"name":"Yanji","latitude":42.89125442504883,"longitude":129.50894165039062,"country_name":"China"},"6986":{"name":"Yantai","latitude":37.46382141113281,"longitude":121.44793701171875,"country_name":"China"},"6987":{"name":"Yarkant County","latitude":38.390899658203125,"longitude":77.22319793701172,"country_name":"China"},"6988":{"name":"Yibin","latitude":28.751768112182617,"longitude":104.6432113647461,"country_name":"China"},"6989":{"name":"Yichang","latitude":30.691967010498047,"longitude":111.28646850585938,"country_name":"China"},"6990":{"name":"\"Yichun, Heilongjiang\"","latitude":47.727535247802734,"longitude":128.8411407470703,"country_name":"China"},"6991":{"name":"\"Yichun, Jiangxi\"","latitude":27.81574249267578,"longitude":114.41678619384766,"country_name":"China"},"6992":{"name":"Yinchuan","latitude":38.4871940612793,"longitude":106.23091125488281,"country_name":"China"},"6993":{"name":"Yingkou","latitude":40.66701126098633,"longitude":122.23542022705078,"country_name":"China"},"6994":{"name":"Yiwu","latitude":29.3067569732666,"longitude":120.07514190673828,"country_name":"China"},"6995":{"name":"Yueyang","latitude":29.370006561279297,"longitude":113.11300659179688,"country_name":"China"},"6996":{"name":"Yulin","latitude":38.2853889465332,"longitude":109.73458862304688,"country_name":"China"},"6997":{"name":"Yuncheng","latitude":35.02641296386719,"longitude":111.00753021240234,"country_name":"China"},"6998":{"name":"\"Yushu City, Qinghai\"","latitude":32.993106842041016,"longitude":97.00878143310547,"country_name":"China"},"6999":{"name":"Zhalantun","latitude":47.99540328979492,"longitude":122.73700714111328,"country_name":"China"},"7000":{"name":"Zhangjiajie","latitude":29.117095947265625,"longitude":110.47919464111328,"country_name":"China"},"7001":{"name":"Zhangjiakou","latitude":40.76754379272461,"longitude":114.88633728027344,"country_name":"China"},"7002":{"name":"Zhangye","latitude":38.92587661743164,"longitude":100.44982147216797,"country_name":"China"},"7003":{"name":"Zhanjiang","latitude":21.2707462310791,"longitude":110.35933685302734,"country_name":"China"},"7004":{"name":"Zhaotong","latitude":27.3382568359375,"longitude":103.71746826171875,"country_name":"China"},"7005":{"name":"Zhengzhou","latitude":34.746612548828125,"longitude":113.62532806396484,"country_name":"China"},"7006":{"name":"Zhongwei","latitude":37.49997329711914,"longitude":105.1968994140625,"country_name":"China"},"7007":{"name":"Zhoushan","latitude":29.985294342041016,"longitude":122.20721435546875,"country_name":"China"},"60":{"name":"Zhuhai","latitude":22.280000686645508,"longitude":113.56999969482422,"country_name":"China"},"7008":{"name":"Zunyi","latitude":27.72565460205078,"longitude":106.9273910522461,"country_name":"China"},"6959":{"name":"Ürümqi","latitude":43.825592041015625,"longitude":87.61685180664062,"country_name":"China"},"1798":{"name":"Apartadó","latitude":7.882761001586914,"longitude":-76.62469482421875,"country_name":"Colombia"},"1799":{"name":"Arauca","latitude":7.076171875,"longitude":-70.71045684814453,"country_name":"Colombia"},"1800":{"name":"Armenia","latitude":4.535091876983643,"longitude":-75.67315673828125,"country_name":"Colombia"},"1801":{"name":"Bahía Solano","latitude":6.2225518226623535,"longitude":-77.40115356445312,"country_name":"Colombia"},"1802":{"name":"Barrancabermeja","latitude":7.061707973480225,"longitude":-73.8519287109375,"country_name":"Colombia"},"1803":{"name":"Barranquilla","latitude":11.004107475280762,"longitude":-74.8069839477539,"country_name":"Colombia"},"1804":{"name":"Bogotá","latitude":4.710988998413086,"longitude":-74.07209014892578,"country_name":"Colombia"},"1805":{"name":"Bucaramanga","latitude":7.1173200607299805,"longitude":-73.1260986328125,"country_name":"Colombia"},"1806":{"name":"Buenaventura","latitude":3.8905510902404785,"longitude":-77.07886505126953,"country_name":"Colombia"},"1807":{"name":"Cali","latitude":3.4524600505828857,"longitude":-76.53575897216797,"country_name":"Colombia"},"1808":{"name":"Cartagena","latitude":10.3910493850708,"longitude":-75.47942352294922,"country_name":"Colombia"},"1809":{"name":"Caucasia","latitude":7.9878997802734375,"longitude":-75.19670104980469,"country_name":"Colombia"},"1810":{"name":"\"Corozal, Sucre\"","latitude":9.321697235107422,"longitude":-75.29446411132812,"country_name":"Colombia"},"1811":{"name":"Cúcuta","latitude":7.888526916503906,"longitude":-72.50308990478516,"country_name":"Colombia"},"1812":{"name":"El Bagre","latitude":7.6057000160217285,"longitude":-74.8062973022461,"country_name":"Colombia"},"1813":{"name":"Florencia","latitude":1.6153860092163086,"longitude":-75.60423278808594,"country_name":"Colombia"},"1814":{"name":"Guapi","latitude":2.571286916732788,"longitude":-77.88546752929688,"country_name":"Colombia"},